$GPGSV,3,1,11,02,23,312,42,03,37,097,45,04,67,074,34,06,61,277,39,1*63
$GPGSV,3,2,11,09,66,213,27,19,23,240,36,22,16,104,42,26,04,059,25,1*6C
$GPGSV,3,3,11,07,10,171,,17,14,226,,31,04,025,,1*51
$GLGSV,3,1,10,66,36,059,39,82,46,219,21,77,10,125,21,76,28,074,42,1*73
$GLGSV,3,2,10,83,49,300,26,67,73,320,39,68,27,262,34,75,17,021,,1*7A
$GLGSV,3,3,10,84,04,343,,81,07,184,,1*76
$GAGSV,3,1,09,02,13,066,37,07,85,105,36,08,32,064,38,25,08,016,33,7*7F
$GAGSV,3,2,09,26,54,210,22,33,44,298,43,12,02,327,,13,13,167,,7*7E
$GAGSV,3,3,09,30,02,111,,7*4A
$GQGSV,1,1,01,-190,04,035,26,1*47
$GBGSV,3,1,11,33,78,061,38,27,37,284,42,26,25,059,36,24,24,112,42,1*70
$GBGSV,3,2,11,14,49,078,44,09,18,049,32,05,11,119,36,07,02,063,,1*75
$GBGSV,3,3,11,25,00,000,,28,30,217,,30,09,331,,1*47
$GNGSA,A,3,02,03,04,06,19,22,,,,,,,1.0,0.8,0.7,1*34
$GNGSA,A,3,66,67,68,76,83,,,,,,,,1.0,0.8,0.7,2*39
$GNGSA,A,3,02,07,08,25,33,,,,,,,,1.0,0.8,0.7,3*37
$GNGSA,A,3,09,14,24,26,27,33,,,,,,,1.0,0.8,0.7,4*31
$GNVTG,,T,,M,0.0,N,0.0,K,A*3D
$GNRMC,100250.44,A,5200.057436,N,00422.754989,E,0.0,,191120,1.8,W,A,V*66
$GNGGA,100250.44,5200.057436,N,00422.754989,E,1,12,0.8,2.3,M,47.0,M,,*73
$GNGSA,A,3,02,03,04,06,19,22,,,,,,,1.0,0.8,0.7,1*34
$GNGSA,A,3,66,67,68,76,83,,,,,,,,1.0,0.8,0.7,2*39
$GNGSA,A,3,02,07,08,25,33,,,,,,,,1.0,0.8,0.7,3*37
$GNGSA,A,3,09,14,24,26,27,33,,,,,,,1.0,0.8,0.7,4*31
$GNVTG,,T,,M,0.0,N,0.0,K,A*3D
$GNRMC,100251.00,A,5200.057929,N,00422.755260,E,0.0,,191120,1.8,W,A,V*69
$GNGGA,100251.00,5200.057929,N,00422.755260,E,1,12,0.8,2.2,M,47.0,M,,*7D
$GPGSV,3,1,11,02,23,312,41,03,37,097,46,04,67,074,35,06,61,277,39,1*62
$GPGSV,3,2,11,09,66,213,27,19,23,240,34,22,16,104,43,26,04,059,25,1*6F
$GPGSV,3,3,11,07,10,171,,17,14,226,,31,04,025,,1*51
$GLGSV,3,1,10,66,36,059,38,82,46,219,21,77,10,125,21,76,28,074,42,1*72
$GLGSV,3,2,10,83,49,300,29,67,73,320,38,68,27,262,33,75,17,021,,1*73
$GLGSV,3,3,10,84,04,343,,81,07,184,,1*76
$GAGSV,3,1,09,02,13,066,38,07,85,105,37,08,32,064,39,25,08,016,32,7*71
$GAGSV,3,2,09,26,54,210,22,33,44,298,44,12,02,327,,13,13,167,,7*79
$GAGSV,3,3,09,30,02,111,,7*4A
$GQGSV,1,1,01,-190,04,035,24,1*45
$GBGSV,3,1,11,33,78,061,39,27,37,284,43,26,25,059,38,24,24,112,42,1*7E
$GBGSV,3,2,11,14,49,078,44,09,18,049,32,05,11,119,35,07,02,063,,1*76
$GBGSV,3,3,11,25,00,000,,28,30,217,,30,09,331,,1*47
$GNGSA,A,3,02,03,04,06,19,22,,,,,,,1.0,0.8,0.7,1*34
$GNGSA,A,3,66,67,68,76,83,,,,,,,,1.0,0.8,0.7,2*39
$GNGSA,A,3,02,07,08,25,33,,,,,,,,1.0,0.8,0.7,3*37
$GNGSA,A,3,09,14,24,26,27,33,,,,,,,1.0,0.8,0.7,4*31
$GNVTG,,T,,M,0.0,N,0.0,K,A*3D
$GNRMC,100252.00,A,5200.058296,N,00422.755448,E,0.0,,191120,1.8,W,A,V*66
$GNGGA,100252.00,5200.058296,N,00422.755448,E,1,12,0.8,2.3,M,47.0,M,,*73
$GPGSV,3,1,11,02,23,312,42,03,37,097,45,04,67,074,36,06,61,277,38,1*60
$GPGSV,3,2,11,09,66,213,27,19,23,240,33,22,16,104,43,26,04,059,25,1*68
$GPGSV,3,3,11,07,10,171,,17,14,226,,31,04,025,,1*51
$GLGSV,3,1,10,66,36,059,40,82,46,219,21,77,10,125,21,76,28,074,42,1*7D
$GLGSV,3,2,10,83,49,300,28,67,73,320,39,68,27,262,36,75,17,021,,1*76
$GLGSV,3,3,10,84,04,343,,81,07,184,,1*76
$GAGSV,3,1,09,02,13,066,37,07,85,105,37,08,32,064,39,25,08,016,33,7*7F
$GAGSV,3,2,09,26,54,210,22,33,44,298,44,12,02,327,,13,13,167,,7*79
$GAGSV,3,3,09,30,02,111,,7*4A
$GQGSV,1,1,01,-190,04,035,24,1*45
$GBGSV,3,1,11,33,78,061,40,27,37,284,43,26,25,059,38,24,24,112,42,1*70
$GBGSV,3,2,11,14,49,078,44,09,18,049,34,05,11,119,34,07,02,063,,1*71
$GBGSV,3,3,11,25,00,000,,28,30,217,,30,09,331,,1*47
$GNGSA,A,3,02,03,04,06,19,22,,,,,,,1.0,0.8,0.7,1*34
$GNGSA,A,3,66,67,68,76,83,,,,,,,,1.0,0.8,0.7,2*39
$GNGSA,A,3,02,07,08,25,33,,,,,,,,1.0,0.8,0.7,3*37
$GNGSA,A,3,09,14,24,26,27,33,,,,,,,1.0,0.8,0.7,4*31
$GNVTG,,T,,M,0.0,N,0.0,K,A*3D
$GNRMC,100253.00,A,5200.058367,N,00422.755473,E,0.0,,191120,1.8,W,A,V*60
$GNGGA,100253.00,5200.058367,N,00422.755473,E,1,12,0.8,2.2,M,47.0,M,,*74
$GPGSV,3,1,11,02,23,312,41,03,37,097,45,04,67,074,35,06,61,277,38,1*60
$GPGSV,3,2,11,09,66,213,27,19,23,240,36,22,16,104,42,26,04,059,25,1*6C
$GPGSV,3,3,11,31,04,025,25,07,10,171,,17,14,226,,1*56
$GPGSV,1,1,04,03,37,097,44,04,67,074,41,06,61,277,42,09,66,213,,8*6F
$GLGSV,3,1,10,66,36,059,41,82,46,219,21,77,10,125,21,76,28,074,42,1*7C
$GLGSV,3,2,10,83,49,300,29,67,73,320,40,68,27,262,33,75,17,021,,1*7C
$GLGSV,3,3,10,84,04,343,,81,07,184,,1*76
$GAGSV,3,1,09,02,13,066,37,07,85,105,37,08,32,064,39,25,08,016,33,7*7F
$GAGSV,3,2,09,26,54,210,22,33,44,298,44,12,02,327,,13,13,167,,7*79
$GAGSV,3,3,09,30,02,111,,7*4A
$GAGSV,3,1,09,02,13,066,35,07,85,105,42,08,32,064,36,33,44,298,44,1*7D
$GAGSV,3,2,09,12,02,327,,13,13,167,,25,08,016,,26,54,210,,1*74
$GAGSV,3,3,09,30,02,111,,1*4C
$GQGSV,1,1,01,-190,04,035,24,1*45
$GQGSV,1,1,01,-190,04,035,26,8*4E
$GBGSV,3,1,11,33,78,061,40,30,09,331,27,27,37,284,43,26,25,059,38,1*7A
$GBGSV,3,2,11,24,24,112,43,14,49,078,44,09,18,049,34,05,11,119,36,1*76
$GBGSV,3,3,11,07,02,063,,25,00,000,,28,30,217,,1*4C
$GBGSV,2,1,07,24,24,112,44,26,25,059,36,27,37,284,38,28,30,217,25,5*70
$GBGSV,2,2,07,30,09,331,27,33,78,061,42,25,00,000,,5*42
$GIGSV,1,1,03,02,09,123,37,06,26,144,35,09,21,113,37,1*49
$GNGSA,A,3,02,03,04,06,19,22,,,,,,,0.9,0.7,0.6,1*32
$GNGSA,A,3,66,67,68,76,83,,,,,,,,0.9,0.7,0.6,2*3F
$GNGSA,A,3,02,07,08,25,33,,,,,,,,0.9,0.7,0.6,3*31
$GNGSA,A,3,09,14,24,26,27,28,30,33,,,,,0.9,0.7,0.6,4*3E
$GNVTG,,T,,M,0.0,N,0.0,K,A*3D
$GNRMC,100254.00,A,5200.058354,N,00422.755437,E,0.0,,191120,1.8,W,A,V*67
$GNGGA,100254.00,5200.058354,N,00422.755437,E,1,12,0.7,2.1,M,47.0,M,,*7F
$GPGSV,3,1,11,02,23,312,41,03,37,097,45,04,67,074,35,06,61,277,38,1*60
$GPGSV,3,2,11,09,66,213,27,19,23,240,37,22,16,104,42,26,04,059,25,1*6D
$GPGSV,3,3,11,31,04,025,25,07,10,171,,17,14,226,,1*56
$GPGSV,1,1,04,03,37,097,44,04,67,074,40,06,61,277,41,09,66,213,,8*6D
$GLGSV,3,1,10,66,36,059,42,82,46,219,21,77,10,125,21,76,28,074,42,1*7F
$GLGSV,3,2,10,83,49,300,30,67,73,320,39,68,27,262,27,75,17,021,,1*7F
$GLGSV,3,3,10,84,04,343,,81,07,184,,1*76
$GAGSV,3,1,09,02,13,066,37,07,85,105,38,08,32,064,39,25,08,016,31,7*72
$GAGSV,3,2,09,26,54,210,22,33,44,298,44,12,02,327,,13,13,167,,7*79
$GAGSV,3,3,09,30,02,111,,7*4A
$GAGSV,3,1,09,02,13,066,36,07,85,105,42,08,32,064,36,33,44,298,43,1*79
$GAGSV,3,2,09,12,02,327,,13,13,167,,25,08,016,,26,54,210,,1*74
$GAGSV,3,3,09,30,02,111,,1*4C
$GQGSV,1,1,01,-190,04,035,25,1*44
$GQGSV,1,1,01,-190,04,035,26,8*4E
$GBGSV,3,1,11,33,78,061,40,27,37,284,44,26,25,059,39,24,24,112,42,1*76
$GBGSV,3,2,11,14,49,078,43,09,18,049,33,05,11,119,36,07,02,063,,1*73
$GBGSV,3,3,11,25,00,000,,28,30,217,,30,09,331,,1*47
$GBGSV,2,1,07,24,24,112,44,26,25,059,36,27,37,284,38,28,30,217,27,5*72
$GBGSV,2,2,07,30,09,331,27,33,78,061,42,25,00,000,,5*42
$GIGSV,1,1,03,02,09,123,37,06,26,144,35,09,21,113,37,1*49
$GNGSA,A,3,02,03,04,06,19,22,,,,,,,0.9,0.7,0.6,1*32
$GNGSA,A,3,66,67,68,76,83,,,,,,,,0.9,0.7,0.6,2*3F
$GNGSA,A,3,02,07,08,25,33,,,,,,,,0.9,0.7,0.6,3*31
$GNGSA,A,3,09,14,24,26,27,28,30,33,,,,,0.9,0.7,0.6,4*3E
$GNVTG,,T,,M,0.0,N,0.0,K,A*3D
$GNRMC,100255.00,A,5200.058314,N,00422.755388,E,0.0,,191120,1.8,W,A,V*61
$GNGGA,100255.00,5200.058314,N,00422.755388,E,1,12,0.7,2.0,M,47.0,M,,*78
$GPGSV,3,1,11,02,23,312,42,03,37,097,45,04,67,074,35,06,61,277,35,1*6E
$GPGSV,3,2,11,09,66,213,27,19,23,240,37,22,16,104,43,26,04,059,25,1*6C
$GPGSV,3,3,11,31,04,025,25,07,10,171,,17,14,226,,1*56
$GPGSV,1,1,04,03,37,097,45,04,67,074,41,06,61,277,42,09,66,213,,8*6E
$GLGSV,3,1,10,66,36,059,41,82,46,219,21,77,10,125,21,76,28,074,41,1*7F
$GLGSV,3,2,10,83,49,300,28,67,73,320,38,68,27,262,32,75,17,021,,1*73
$GLGSV,3,3,10,84,04,343,,81,07,184,,1*76
$GAGSV,3,1,09,02,13,066,37,07,85,105,39,08,32,064,39,25,08,016,30,7*72
$GAGSV,3,2,09,26,54,210,25,33,44,298,43,12,02,327,,13,13,167,,7*79
$GAGSV,3,3,09,30,02,111,,7*4A
$GAGSV,3,1,09,02,13,066,36,07,85,105,42,08,32,064,35,33,44,298,44,1*7D
$GAGSV,3,2,09,12,02,327,,13,13,167,,25,08,016,,26,54,210,,1*74
$GAGSV,3,3,09,30,02,111,,1*4C
$GQGSV,1,1,01,-190,04,035,25,1*44
$GQGSV,1,1,01,-190,04,035,25,8*4D
$GBGSV,3,1,11,33,78,061,39,30,09,331,27,27,37,284,43,26,25,059,39,1*75
$GBGSV,3,2,11,24,24,112,44,14,49,078,45,09,18,049,34,05,11,119,35,1*73
$GBGSV,3,3,11,07,02,063,,25,00,000,,28,30,217,,1*4C
$GBGSV,2,1,07,24,24,112,44,26,25,059,36,27,37,284,37,28,30,217,24,5*7E
$GBGSV,2,2,07,30,09,331,28,33,78,061,43,25,00,000,,5*4C
$GIGSV,1,1,03,02,09,123,38,06,26,144,34,09,21,113,38,1*48
$GNGSA,A,3,02,03,04,06,19,22,,,,,,,0.9,0.6,0.6,1*33
$GNGSA,A,3,66,67,68,76,83,,,,,,,,0.9,0.6,0.6,2*3E
$GNGSA,A,3,02,07,08,25,26,33,,,,,,,0.9,0.6,0.6,3*34
$GNGSA,A,3,09,14,24,26,27,28,30,33,,,,,0.9,0.6,0.6,4*3F
$GNVTG,,T,,M,0.0,N,0.0,K,A*3D
$GNRMC,100256.00,A,5200.058272,N,00422.755332,E,0.0,,191120,1.8,W,A,V*62
$GNGGA,100256.00,5200.058272,N,00422.755332,E,1,12,0.6,1.9,M,47.0,M,,*70
$GPGSV,3,1,11,02,23,312,40,03,37,097,34,04,67,074,35,06,61,277,35,1*6A
$GPGSV,3,2,11,09,66,213,24,19,23,240,37,22,16,104,42,26,04,059,25,1*6E
$GPGSV,3,3,11,31,04,025,24,07,10,171,,17,14,226,,1*57
$GPGSV,1,1,04,03,37,097,44,04,67,074,43,06,61,277,44,09,66,213,,8*6B
$GLGSV,3,1,10,66,36,059,44,82,46,219,21,77,10,125,21,76,28,074,38,1*74
$GLGSV,3,2,10,83,49,300,30,67,73,320,41,68,27,262,33,75,17,021,,1*75
$GLGSV,3,3,10,84,04,343,,81,07,184,,1*76
$GAGSV,3,1,09,02,13,066,33,07,85,105,41,08,32,064,38,25,08,016,34,7*7C
$GAGSV,3,2,09,26,54,210,25,33,44,298,42,12,02,327,,13,13,167,,7*78
$GAGSV,3,3,09,30,02,111,,7*4A
$GAGSV,3,1,09,02,13,066,32,07,85,105,44,08,32,064,33,33,44,298,43,1*7E
$GAGSV,3,2,09,12,02,327,,13,13,167,,25,08,016,,26,54,210,,1*74
$GAGSV,3,3,09,30,02,111,,1*4C
$GQGSV,1,1,01,-190,04,035,25,1*44
$GQGSV,1,1,01,-190,04,035,27,8*4F
$GBGSV,3,1,11,33,78,061,42,30,09,331,27,27,37,284,41,26,25,059,41,1*74
$GBGSV,3,2,11,24,24,112,42,14,49,078,38,09,18,049,33,05,11,119,36,1*7B
$GBGSV,3,3,11,07,02,063,,25,00,000,,28,30,217,,1*4C
$GBGSV,2,1,07,24,24,112,43,26,25,059,34,27,37,284,32,28,30,217,24,5*7E
$GBGSV,2,2,07,30,09,331,30,33,78,061,43,25,00,000,,5*45
$GIGSV,1,1,03,02,09,123,34,06,26,144,33,09,21,113,37,1*4C
$GNGSA,A,3,02,03,04,06,09,19,22,,,,,,0.9,0.6,0.6,1*3A
$GNGSA,A,3,66,67,68,76,83,,,,,,,,0.9,0.6,0.6,2*3E
$GNGSA,A,3,02,07,08,25,26,33,,,,,,,0.9,0.6,0.6,3*34
$GNGSA,A,3,09,14,24,26,27,28,30,33,,,,,0.9,0.6,0.6,4*3F
$GNVTG,,T,,M,0.0,N,0.0,K,A*3D
$GNRMC,100257.00,A,5200.058229,N,00422.755287,E,0.0,,191120,1.8,W,A,V*62
$GNGGA,100257.00,5200.058229,N,00422.755287,E,1,12,0.6,1.8,M,47.0,M,,*71
$GPGSV,3,1,11,02,23,312,41,03,37,097,42,04,67,074,42,06,61,277,36,1*69
$GPGSV,3,2,11,09,66,213,27,19,23,240,34,22,16,104,44,26,04,059,25,1*68
$GPGSV,3,3,11,31,04,025,26,07,10,171,,17,14,226,,1*55
$GPGSV,1,1,04,03,37,097,42,04,67,074,48,06,61,277,44,09,66,213,,8*66
$GLGSV,3,1,10,66,36,059,45,82,46,219,21,77,10,125,21,76,28,074,40,1*7A
$GLGSV,3,2,10,83,49,300,29,67,73,320,41,68,27,262,33,75,17,021,,1*7D
$GLGSV,3,3,10,84,04,343,,81,07,184,,1*76
$GAGSV,3,1,09,02,13,066,36,07,85,105,41,08,32,064,41,25,08,016,33,7*70
$GAGSV,3,2,09,26,54,210,25,33,44,298,43,12,02,327,,13,13,167,,7*79
$GAGSV,3,3,09,30,02,111,,7*4A
$GAGSV,3,1,09,02,13,066,37,07,85,105,48,08,32,064,38,33,44,298,43,1*7C
$GAGSV,3,2,09,12,02,327,,13,13,167,,25,08,016,,26,54,210,,1*74
$GAGSV,3,3,09,30,02,111,,1*4C
$GQGSV,1,1,01,-190,04,035,24,1*45
$GQGSV,1,1,01,-190,04,035,26,8*4E
$GBGSV,3,1,11,33,78,061,44,30,09,331,27,27,37,284,41,26,25,059,40,1*73
$GBGSV,3,2,11,24,24,112,40,14,49,078,45,09,18,049,36,05,11,119,31,1*71
$GBGSV,3,3,11,07,02,063,,25,00,000,,28,30,217,,1*4C
$GBGSV,2,1,07,24,24,112,37,26,25,059,38,27,37,284,32,28,30,217,25,5*70
$GBGSV,2,2,07,30,09,331,29,33,78,061,47,25,00,000,,5*49
$GIGSV,1,1,03,02,09,123,32,06,26,144,29,09,21,113,34,1*42
$GNGSA,A,3,02,03,04,06,09,19,22,,,,,,0.9,0.6,0.6,1*3A
$GNGSA,A,3,66,67,68,76,83,,,,,,,,0.9,0.6,0.6,2*3E
$GNGSA,A,3,02,07,08,25,26,33,,,,,,,0.9,0.6,0.6,3*34
$GNGSA,A,3,09,14,24,26,27,28,30,33,,,,,0.9,0.6,0.6,4*3F
$GNVTG,,T,,M,0.0,N,0.0,K,A*3D
$GNRMC,100258.00,A,5200.058191,N,00422.755252,E,0.0,,191120,1.8,W,A,V*65
$GNGGA,100258.00,5200.058191,N,00422.755252,E,1,12,0.6,1.7,M,47.0,M,,*79
$GPGSV,3,1,11,02,23,312,40,03,37,097,42,04,67,074,42,06,61,277,34,1*6A
$GPGSV,3,2,11,09,66,213,24,19,23,240,37,22,16,104,43,26,04,059,25,1*6F
$GPGSV,3,3,11,31,04,025,23,07,10,171,,17,14,226,,1*50
$GPGSV,1,1,04,03,37,097,44,04,67,074,48,06,61,277,43,09,66,213,,8*67
$GLGSV,3,1,10,66,36,059,45,82,46,219,25,77,10,125,21,76,28,074,41,1*7F
$GLGSV,3,2,10,83,49,300,30,67,73,320,40,68,27,262,31,75,17,021,,1*76
$GLGSV,3,3,10,84,04,343,,81,07,184,,1*76
$GAGSV,3,1,09,02,13,066,36,07,85,105,42,08,32,064,41,25,08,016,34,7*74
$GAGSV,3,2,09,26,54,210,26,33,44,298,43,12,02,327,,13,13,167,,7*7A
$GAGSV,3,3,09,30,02,111,,7*4A
$GAGSV,3,1,09,02,13,066,37,07,85,105,48,08,32,064,39,33,44,298,43,1*7D
$GAGSV,3,2,09,12,02,327,,13,13,167,,25,08,016,,26,54,210,,1*74
$GAGSV,3,3,09,30,02,111,,1*4C
$GQGSV,1,1,01,-190,04,035,24,1*45
$GQGSV,1,1,01,-190,04,035,25,8*4D
$GBGSV,3,1,11,33,78,061,45,30,09,331,27,27,37,284,41,26,25,059,42,1*70
$GBGSV,3,2,11,24,24,112,46,14,49,078,45,09,18,049,36,05,11,119,33,1*75
$GBGSV,3,3,11,07,02,063,,25,00,000,,28,30,217,,1*4C
$GBGSV,2,1,07,24,24,112,43,26,25,059,39,27,37,284,33,28,30,217,26,5*70
$GBGSV,2,2,07,30,09,331,31,33,78,061,47,25,00,000,,5*40
$GIGSV,1,1,03,02,09,123,30,06,26,144,29,09,21,113,36,1*42
$GNGSA,A,3,02,03,04,06,09,19,22,,,,,,0.9,0.6,0.6,1*3A
$GNGSA,A,3,66,67,68,76,82,83,,,,,,,0.9,0.6,0.6,2*34
$GNGSA,A,3,02,07,08,25,26,33,,,,,,,0.9,0.6,0.6,3*34
$GNGSA,A,3,09,14,24,26,27,28,30,33,,,,,0.9,0.6,0.6,4*3F
$GNVTG,,T,,M,0.0,N,0.0,K,A*3D
$GNRMC,100259.00,A,5200.058171,N,00422.755226,E,0.0,,191120,1.8,W,A,V*69
$GNGGA,100259.00,5200.058171,N,00422.755226,E,1,12,0.6,1.7,M,47.0,M,,*75
$GPGSV,3,1,11,02,23,312,40,03,37,097,42,04,67,074,42,06,61,277,33,1*6D
$GPGSV,3,2,11,09,66,213,24,19,23,240,36,22,16,104,43,26,04,059,25,1*6E
$GPGSV,3,3,11,31,04,025,25,07,10,171,,17,14,226,,1*56
$GPGSV,1,1,04,03,37,097,43,04,67,074,48,06,61,277,43,09,66,213,,8*60
$GLGSV,3,1,10,66,36,059,44,82,46,219,25,77,10,125,21,76,28,074,41,1*7E
$GLGSV,3,2,10,83,49,300,30,67,73,320,40,68,27,262,30,75,17,021,,1*77
$GLGSV,3,3,10,84,04,343,,81,07,184,,1*76
$GAGSV,3,1,09,02,13,066,36,07,85,105,42,08,32,064,40,25,08,016,34,7*75
$GAGSV,3,2,09,26,54,210,26,33,44,298,43,12,02,327,,13,13,167,,7*7A
$GAGSV,3,3,09,30,02,111,,7*4A
$GAGSV,3,1,09,02,13,066,36,07,85,105,48,08,32,064,38,33,44,298,43,1*7D
$GAGSV,3,2,09,12,02,327,,13,13,167,,25,08,016,,26,54,210,,1*74
$GAGSV,3,3,09,30,02,111,,1*4C
$GQGSV,1,1,01,-190,04,035,26,1*47
$GQGSV,1,1,01,-190,04,035,25,8*4D
$GBGSV,3,1,11,33,78,061,45,30,09,331,27,27,37,284,41,26,25,059,42,1*70
$GBGSV,3,2,11,24,24,112,45,14,49,078,45,09,18,049,35,05,11,119,35,1*73
$GBGSV,3,3,11,07,02,063,,25,00,000,,28,30,217,,1*4C
$GBGSV,2,1,07,24,24,112,44,26,25,059,38,27,37,284,32,28,30,217,27,5*76
$GBGSV,2,2,07,30,09,331,29,33,78,061,47,25,00,000,,5*49
$GIGSV,1,1,03,02,09,123,32,06,26,144,28,09,21,113,38,1*4F
$GNGSA,A,3,02,03,04,06,09,19,22,,,,,,0.9,0.6,0.6,1*3A
$GNGSA,A,3,66,67,68,76,82,83,,,,,,,0.9,0.6,0.6,2*34
$GNGSA,A,3,02,07,08,25,26,33,,,,,,,0.9,0.6,0.6,3*34
$GNGSA,A,3,09,14,24,26,27,28,30,33,,,,,0.9,0.6,0.6,4*3F
$GNVTG,,T,,M,0.0,N,0.0,K,A*3D
$GNRMC,100300.00,A,5200.058144,N,00422.755205,E,0.0,,191120,1.8,W,A,V*63
$GNGGA,100300.00,5200.058144,N,00422.755205,E,1,12,0.6,1.6,M,47.0,M,,*7E
$GPGSV,3,1,11,02,23,312,40,03,37,097,42,04,67,074,43,06,61,277,35,1*6A
$GPGSV,3,2,11,09,66,213,24,19,23,240,31,22,16,104,42,26,04,059,25,1*68
$GPGSV,3,3,11,31,04,025,25,07,10,171,,17,14,226,,1*56
$GPGSV,1,1,04,03,37,097,44,04,67,074,48,06,61,277,43,09,66,213,,8*67
$GLGSV,3,1,10,66,36,059,45,82,46,219,25,77,10,125,21,76,28,074,41,1*7F
$GLGSV,3,2,10,83,49,300,30,67,73,320,41,68,27,262,36,75,17,021,,1*70
$GLGSV,3,3,10,84,04,343,,81,07,184,,1*76
$GAGSV,3,1,09,02,13,066,37,07,85,105,41,08,32,064,39,25,08,016,36,7*7B
$GAGSV,3,2,09,26,54,210,26,33,44,298,43,12,02,327,,13,13,167,,7*7A
$GAGSV,3,3,09,30,02,111,,7*4A
$GAGSV,3,1,09,02,13,066,37,07,85,105,48,08,32,064,39,33,44,298,43,1*7D
$GAGSV,3,2,09,12,02,327,,13,13,167,,25,08,016,,26,54,210,,1*74
$GAGSV,3,3,09,30,02,111,,1*4C
$GQGSV,1,1,01,-190,04,035,26,1*47
$GQGSV,1,1,01,-190,04,035,24,8*4C
$GBGSV,3,1,11,33,78,061,44,30,09,331,28,27,37,284,40,26,25,059,43,1*7E
$GBGSV,3,2,11,24,24,112,42,14,49,078,45,09,18,049,35,05,11,119,33,1*72
$GBGSV,3,3,11,07,02,063,,25,00,000,,28,30,217,,1*4C
$GBGSV,2,1,07,24,24,112,45,26,25,059,38,27,37,284,32,28,30,217,25,5*75
$GBGSV,2,2,07,30,09,331,29,33,78,061,47,25,00,000,,5*49
$GIGSV,1,1,03,02,09,123,30,06,26,144,32,09,21,113,39,1*47
$GNGSA,A,3,02,03,04,06,09,19,22,,,,,,0.9,0.6,0.6,1*3A
$GNGSA,A,3,66,67,68,76,82,83,,,,,,,0.9,0.6,0.6,2*34
$GNGSA,A,3,02,07,08,25,26,33,,,,,,,0.9,0.6,0.6,3*34
$GNGSA,A,3,09,14,24,26,27,28,30,33,,,,,0.9,0.6,0.6,4*3F
$GNVTG,,T,,M,0.0,N,0.0,K,A*3D
$GNRMC,100301.00,A,5200.058121,N,00422.755188,E,0.0,,191120,1.8,W,A,V*67
$GNGGA,100301.00,5200.058121,N,00422.755188,E,1,12,0.6,1.6,M,47.0,M,,*7A
$GPGSV,3,1,11,02,23,312,40,03,37,097,42,04,67,074,43,06,61,277,35,1*6A
$GPGSV,3,2,11,09,66,213,24,19,23,240,31,22,16,104,42,26,04,059,25,1*68
$GPGSV,3,3,11,31,04,025,25,07,10,171,,17,14,226,,1*56
$GPGSV,1,1,04,03,37,097,44,04,67,074,47,06,61,277,43,09,66,213,,8*68
$GLGSV,3,1,10,66,36,059,45,82,46,219,25,77,10,125,21,76,28,074,41,1*7F
$GLGSV,3,2,10,83,49,300,29,67,73,320,40,68,27,262,36,75,17,021,,1*79
$GLGSV,3,3,10,84,04,343,,81,07,184,,1*76
$GAGSV,3,1,09,02,13,066,36,07,85,105,42,08,32,064,39,25,08,016,35,7*7A
$GAGSV,3,2,09,26,54,210,26,33,44,298,43,12,02,327,,13,13,167,,7*7A
$GAGSV,3,3,09,30,02,111,,7*4A
$GAGSV,3,1,09,02,13,066,37,07,85,105,48,08,32,064,38,33,44,298,43,1*7C
$GAGSV,3,2,09,12,02,327,,13,13,167,,25,08,016,,26,54,210,,1*74
$GAGSV,3,3,09,30,02,111,,1*4C
$GQGSV,1,1,01,-190,04,035,24,1*45
$GQGSV,1,1,01,-190,04,035,27,8*4F
$GBGSV,3,1,11,33,78,061,45,30,09,331,29,27,37,284,41,26,25,059,42,1*7E
$GBGSV,3,2,11,24,24,112,43,14,49,078,45,09,18,049,37,05,11,119,34,1*76
$GBGSV,3,3,11,07,02,063,,25,00,000,,28,30,217,,1*4C
$GBGSV,2,1,07,24,24,112,44,26,25,059,39,27,37,284,32,28,30,217,26,5*76
$GBGSV,2,2,07,30,09,331,30,33,78,061,47,25,00,000,,5*41
$GIGSV,1,1,03,02,09,123,32,06,26,144,32,09,21,113,39,1*45
$GNGSA,A,3,02,03,04,06,09,19,22,,,,,,0.9,0.6,0.6,1*3A
$GNGSA,A,3,66,67,68,76,82,83,,,,,,,0.9,0.6,0.6,2*34
$GNGSA,A,3,02,07,08,25,33,,,,,,,,0.9,0.6,0.6,3*30
$GNGSA,A,3,09,14,24,26,27,28,30,33,,,,,0.9,0.6,0.6,4*3F
$GNVTG,,T,,M,0.0,N,0.0,K,A*3D
$GNRMC,100302.00,A,5200.058091,N,00422.755176,E,0.0,,191120,1.8,W,A,V*6F
$GNGGA,100302.00,5200.058091,N,00422.755176,E,1,12,0.6,1.5,M,47.0,M,,*71
$GPGSV,3,1,11,02,23,312,41,03,37,097,42,04,67,074,43,06,61,277,36,1*68
$GPGSV,3,2,11,09,66,213,24,19,23,240,32,22,16,104,43,26,04,059,25,1*6A
$GPGSV,3,3,11,31,04,025,25,07,10,171,,17,14,226,,1*56
$GPGSV,1,1,04,03,37,097,44,04,67,074,48,06,61,277,43,09,66,213,,8*67
$GLGSV,3,1,10,66,36,059,46,82,46,219,25,77,10,125,21,76,28,074,41,1*7C
$GLGSV,3,2,10,83,49,300,30,67,73,320,40,68,27,262,35,75,17,021,,1*72
$GLGSV,3,3,10,84,04,343,,81,07,184,,1*76
$GAGSV,3,1,09,02,13,066,36,07,85,105,41,08,32,064,39,25,08,016,35,7*79
$GAGSV,3,2,09,26,54,210,26,33,44,298,43,12,02,327,,13,13,167,,7*7A
$GAGSV,3,3,09,30,02,111,,7*4A
$GAGSV,3,1,09,02,13,066,37,07,85,105,48,08,32,064,38,33,44,298,43,1*7C
$GAGSV,3,2,09,12,02,327,,13,13,167,,25,08,016,,26,54,210,,1*74
$GAGSV,3,3,09,30,02,111,,1*4C
$GQGSV,1,1,01,-190,04,035,24,1*45
$GQGSV,1,1,01,-190,04,035,26,8*4E
$GBGSV,3,1,11,33,78,061,45,30,09,331,29,27,37,284,41,26,25,059,42,1*7E
$GBGSV,3,2,11,24,24,112,43,14,49,078,45,09,18,049,36,05,11,119,35,1*76
$GBGSV,3,3,11,07,02,063,,25,00,000,,28,30,217,,1*4C
$GBGSV,2,1,07,24,24,112,44,26,25,059,39,27,37,284,32,28,30,217,25,5*75
$GBGSV,2,2,07,30,09,331,29,33,78,061,47,25,00,000,,5*49
$GIGSV,1,1,03,02,09,123,31,06,26,144,33,09,21,113,39,1*47
$GNGSA,A,3,02,03,04,06,09,19,22,,,,,,0.9,0.6,0.6,1*3A
$GNGSA,A,3,66,67,68,76,82,83,,,,,,,0.9,0.6,0.6,2*34
$GNGSA,A,3,02,07,08,25,33,,,,,,,,0.9,0.6,0.6,3*30
$GNGSA,A,3,09,14,24,26,27,28,30,33,,,,,0.9,0.6,0.6,4*3F
$GNVTG,,T,,M,0.0,N,0.0,K,A*3D
$GNRMC,100303.00,A,5200.058050,N,00422.755157,E,0.0,,191120,1.8,W,A,V*60
$GNGGA,100303.00,5200.058050,N,00422.755157,E,1,12,0.6,1.5,M,47.0,M,,*7E
$GPGSV,3,1,11,02,23,312,40,03,37,097,43,04,67,074,42,06,61,277,33,1*6C
$GPGSV,3,2,11,09,66,213,24,19,23,240,36,22,16,104,44,26,04,059,25,1*69
$GPGSV,3,3,11,31,04,025,25,07,10,171,,17,14,226,,1*56
$GPGSV,1,1,04,03,37,097,44,04,67,074,48,06,61,277,43,09,66,213,,8*67
$GLGSV,3,1,10,66,36,059,44,82,46,219,25,77,10,125,21,76,28,074,41,1*7E
$GLGSV,3,2,10,83,49,300,31,67,73,320,38,68,27,262,31,75,17,021,,1*78
$GLGSV,3,3,10,84,04,343,,81,07,184,,1*76
$GAGSV,3,1,09,02,13,066,37,07,85,105,42,08,32,064,40,25,08,016,35,7*75
$GAGSV,3,2,09,26,54,210,25,33,45,298,43,12,02,327,,13,13,167,,7*78
$GAGSV,3,3,09,30,02,111,,7*4A
$GAGSV,3,1,09,02,13,066,36,07,85,105,48,08,32,064,38,33,45,298,43,1*7C
$GAGSV,3,2,09,12,02,327,,13,13,167,,25,08,016,,26,54,210,,1*74
$GAGSV,3,3,09,30,02,111,,1*4C
$GQGSV,1,1,01,-190,04,035,24,1*45
$GQGSV,1,1,01,-190,04,035,26,8*4E
$GBGSV,3,1,11,33,78,061,45,27,37,284,41,26,25,059,42,24,24,112,44,1*7C
$GBGSV,3,2,11,14,49,078,45,09,18,049,33,05,11,119,33,07,02,063,,1*70
$GBGSV,3,3,11,25,00,000,,28,30,217,,30,09,331,,1*47
$GBGSV,2,1,07,24,24,112,45,26,25,059,39,27,37,284,32,28,30,217,25,5*74
$GBGSV,2,2,07,30,09,331,29,33,78,061,47,25,00,000,,5*49
$GIGSV,1,1,03,02,09,123,31,06,26,144,33,09,21,113,40,1*49
$GNGSA,A,3,02,03,04,06,09,19,22,,,,,,0.9,0.6,0.6,1*3A
$GNGSA,A,3,66,67,68,76,82,83,,,,,,,0.9,0.6,0.6,2*34
$GNGSA,A,3,02,07,08,25,26,33,,,,,,,0.9,0.6,0.6,3*34
$GNGSA,A,3,09,14,24,26,27,28,30,33,,,,,0.9,0.6,0.6,4*3F
$GNVTG,,T,,M,0.0,N,0.0,K,A*3D
$GNRMC,100304.00,A,5200.057996,N,00422.755121,E,0.0,,191120,1.8,W,A,V*6A
$GNGGA,100304.00,5200.057996,N,00422.755121,E,1,12,0.6,1.4,M,47.0,M,,*75
$GPGSV,3,1,11,02,23,312,41,03,37,097,43,04,67,074,42,06,61,277,33,1*6D
$GPGSV,3,2,11,09,66,213,24,19,23,240,36,22,16,104,42,26,04,059,25,1*6F
$GPGSV,3,3,11,31,04,025,26,07,10,171,,17,14,226,,1*55
$GPGSV,1,1,04,03,37,097,44,04,67,074,48,06,61,277,44,09,66,213,,8*60
$GLGSV,3,1,10,66,36,059,45,82,46,219,25,77,10,125,25,76,28,074,42,1*78
$GLGSV,3,2,10,83,49,300,31,67,73,320,40,68,27,262,30,75,17,021,,1*76
$GLGSV,3,3,10,84,04,343,,81,07,184,,1*76
$GAGSV,3,1,09,02,13,066,37,07,85,105,42,08,32,064,40,25,08,016,34,7*74
$GAGSV,3,2,09,26,54,210,25,33,45,298,43,12,02,327,,13,13,167,,7*78
$GAGSV,3,3,09,30,02,111,,7*4A
$GAGSV,3,1,09,02,13,066,37,07,85,105,48,08,32,064,38,33,45,298,43,1*7D
$GAGSV,3,2,09,12,02,327,,13,13,167,,25,08,016,,26,54,210,,1*74
$GAGSV,3,3,09,30,02,111,,1*4C
$GQGSV,1,1,01,-190,04,035,24,1*45
$GQGSV,1,1,01,-190,04,035,26,8*4E
$GBGSV,3,1,11,33,78,061,45,30,09,331,27,27,37,284,41,26,25,059,41,1*73
$GBGSV,3,2,11,24,24,112,43,14,49,078,45,09,18,049,33,05,11,119,32,1*74
$GBGSV,3,3,11,07,02,063,,25,00,000,,28,30,217,,1*4C
$GBGSV,2,1,07,24,24,112,44,26,25,059,39,27,37,284,32,28,30,217,25,5*75
$GBGSV,2,2,07,30,09,331,30,33,78,061,47,25,00,000,,5*41
$GIGSV,1,1,03,02,09,123,31,06,26,144,33,09,21,113,38,1*46
$GNGSA,A,3,02,03,04,06,19,22,,,,,,,0.8,0.6,0.6,1*32
$GNGSA,A,3,66,67,68,76,77,83,,,,,,,0.8,0.6,0.6,2*3F
$GNGSA,A,3,02,07,08,25,26,33,,,,,,,0.8,0.6,0.6,3*35
$GNGSA,A,3,09,14,24,26,27,28,30,33,,,,,0.8,0.6,0.6,4*3E
$GNVTG,,T,,M,0.0,N,0.0,K,A*3D
$GNRMC,100305.00,A,5200.057952,N,00422.755091,E,0.0,,191120,1.8,W,A,V*69
$GNGGA,100305.00,5200.057952,N,00422.755091,E,1,12,0.6,1.3,M,47.0,M,,*71
$GPGSV,3,1,11,02,23,312,41,03,37,097,43,04,67,074,42,06,61,277,35,1*6B
$GPGSV,3,2,11,09,66,213,24,19,23,240,32,22,16,104,42,26,04,059,25,1*6B
$GPGSV,3,3,11,31,04,025,26,07,10,171,,17,14,226,,1*55
$GPGSV,1,1,04,03,37,097,44,04,67,074,48,06,61,277,43,09,66,213,,8*67
$GLGSV,3,1,10,66,36,059,44,82,46,219,25,77,10,125,24,76,28,074,41,1*7B
$GLGSV,3,2,10,83,49,300,29,67,73,320,39,68,27,262,36,75,17,021,,1*77
$GLGSV,3,3,10,84,04,343,,81,07,184,,1*76
$GAGSV,3,1,09,02,13,066,37,07,85,105,41,08,32,064,41,25,08,016,34,7*76
$GAGSV,3,2,09,26,54,210,25,33,45,298,43,12,02,327,,13,13,167,,7*78
$GAGSV,3,3,09,30,02,111,,7*4A
$GAGSV,3,1,09,02,13,066,37,07,85,105,48,08,32,064,39,33,45,298,43,1*7C
$GAGSV,3,2,09,12,02,327,,13,13,167,,25,08,016,,26,54,210,,1*74
$GAGSV,3,3,09,30,02,111,,1*4C
$GQGSV,1,1,01,-190,04,035,24,1*45
$GQGSV,1,1,01,-190,04,035,25,8*4D
$GBGSV,3,1,11,33,78,061,44,30,09,331,29,27,37,284,41,26,25,059,41,1*7C
$GBGSV,3,2,11,24,24,112,44,14,49,078,46,09,18,049,34,05,11,119,37,1*72
$GBGSV,3,3,11,07,02,063,,25,00,000,,28,30,217,,1*4C
$GBGSV,2,1,07,24,24,112,43,26,25,059,39,27,37,284,32,28,30,217,26,5*71
$GBGSV,2,2,07,30,09,331,30,33,78,061,47,25,00,000,,5*41
$GIGSV,1,1,03,02,09,123,35,06,26,144,33,09,21,113,37,1*4D
$GNGSA,A,3,02,03,04,06,19,22,,,,,,,0.8,0.6,0.6,1*32
$GNGSA,A,3,66,67,68,76,77,83,,,,,,,0.8,0.6,0.6,2*3F
$GNGSA,A,3,02,07,08,25,26,33,,,,,,,0.8,0.6,0.6,3*35
$GNGSA,A,3,09,14,24,26,27,28,30,33,,,,,0.8,0.6,0.6,4*3E
$GNVTG,,T,,M,0.0,N,0.0,K,A*3D
$GNRMC,100306.00,A,5200.057917,N,00422.755064,E,0.0,,191120,1.8,W,A,V*61
$GNGGA,100306.00,5200.057917,N,00422.755064,E,1,12,0.6,1.3,M,47.0,M,,*79
$GPGSV,3,1,11,02,23,312,40,03,37,097,43,04,67,074,42,06,61,277,35,1*6A
$GPGSV,3,2,11,09,66,213,24,19,23,240,33,22,16,104,43,26,04,059,25,1*6B
$GPGSV,3,3,11,31,04,025,25,07,10,171,,17,14,226,,1*56
$GPGSV,1,1,03,03,37,097,44,04,67,074,47,06,61,277,43,8*56
$GLGSV,3,1,10,66,36,059,45,82,46,219,25,77,10,125,24,76,28,074,43,1*78
$GLGSV,3,2,10,83,49,300,32,67,73,320,40,68,27,262,36,75,17,021,,1*73
$GLGSV,3,3,10,84,04,343,,81,07,184,,1*76
$GAGSV,3,1,09,02,13,066,37,07,85,105,41,08,32,064,40,25,08,016,36,7*75
$GAGSV,3,2,09,26,54,210,25,33,45,298,43,12,02,327,,13,13,167,,7*78
$GAGSV,3,3,09,30,02,111,,7*4A
$GAGSV,3,1,09,02,13,066,36,07,85,105,48,08,32,064,39,33,45,298,43,1*7D
$GAGSV,3,2,09,12,02,327,,13,13,167,,25,08,016,,26,54,210,,1*74
$GAGSV,3,3,09,30,02,111,,1*4C
$GQGSV,1,1,01,-190,04,035,24,1*45
$GQGSV,1,1,01,-190,04,035,26,8*4E
$GBGSV,3,1,11,33,78,061,45,30,09,331,28,27,37,284,41,26,25,059,40,1*7D
$GBGSV,3,2,11,24,24,112,43,14,49,078,45,09,18,049,34,05,11,119,31,1*70
$GBGSV,3,3,11,07,02,063,,25,00,000,,28,30,217,,1*4C
$GBGSV,2,1,07,24,24,112,44,26,25,059,38,27,37,284,31,28,30,217,25,5*77
$GBGSV,2,2,07,30,09,331,30,33,78,061,47,25,00,000,,5*41
$GIGSV,1,1,03,02,09,123,29,06,26,144,35,09,21,113,39,1*48
$GNGSA,A,3,02,03,04,06,19,22,,,,,,,0.8,0.6,0.6,1*32
$GNGSA,A,3,66,67,68,76,77,83,,,,,,,0.8,0.6,0.6,2*3F
$GNGSA,A,3,02,07,08,25,26,33,,,,,,,0.8,0.6,0.6,3*35
$GNGSA,A,3,09,14,24,26,27,28,30,33,,,,,0.8,0.6,0.6,4*3E
$GNVTG,,T,,M,0.0,N,0.0,K,A*3D
$GNRMC,100307.00,A,5200.057885,N,00422.755038,E,0.0,,191120,1.8,W,A,V*63
$GNGGA,100307.00,5200.057885,N,00422.755038,E,1,12,0.6,1.2,M,47.0,M,,*7A
$GPGSV,3,1,11,02,23,312,40,03,37,097,43,04,67,074,43,06,61,277,36,1*68
$GPGSV,3,2,11,09,66,213,24,19,23,240,32,22,16,104,41,26,04,059,25,1*68
$GPGSV,3,3,11,31,04,025,27,07,10,171,,17,14,226,,1*54
$GPGSV,1,1,04,03,37,097,44,04,67,074,48,06,61,277,43,09,66,213,,8*67
$GLGSV,3,1,10,66,36,059,43,82,46,219,25,77,10,125,25,76,28,074,42,1*7E
$GLGSV,3,2,10,83,49,300,30,67,73,320,38,68,27,262,35,75,17,021,,1*7D
$GLGSV,3,3,10,84,04,343,,81,07,184,,1*76
$GAGSV,3,1,09,02,13,066,38,07,85,105,41,08,32,064,40,25,08,016,34,7*78
$GAGSV,3,2,09,26,54,210,25,33,45,298,43,12,02,327,,13,13,167,,7*78
$GAGSV,3,3,09,30,02,111,,7*4A
$GAGSV,3,1,09,02,13,066,36,07,85,105,48,08,32,064,38,33,45,298,44,1*7B
$GAGSV,3,2,09,12,02,327,,13,13,167,,25,08,016,,26,54,210,,1*74
$GAGSV,3,3,09,30,02,111,,1*4C
$GQGSV,1,1,01,-190,04,035,24,1*45
$GQGSV,1,1,01,-190,04,035,26,8*4E
$GBGSV,3,1,11,33,78,061,45,30,09,331,27,27,37,284,41,26,25,059,40,1*72
$GBGSV,3,2,11,24,24,112,43,14,49,078,45,09,18,049,34,05,11,119,32,1*73
$GBGSV,3,3,11,07,02,063,,25,00,000,,28,30,217,,1*4C
$GBGSV,2,1,07,24,24,112,43,26,25,059,39,27,37,284,31,28,30,217,24,5*70
$GBGSV,2,2,07,30,09,331,31,33,78,061,47,25,00,000,,5*40
$GIGSV,1,1,03,02,09,123,26,06,26,144,35,09,21,113,37,1*49
$GNGSA,A,3,02,03,04,06,19,22,,,,,,,0.8,0.6,0.6,1*32
$GNGSA,A,3,66,67,68,76,77,83,,,,,,,0.8,0.6,0.6,2*3F
$GNGSA,A,3,02,07,08,25,26,33,,,,,,,0.8,0.6,0.6,3*35
$GNGSA,A,3,09,14,24,26,27,28,30,33,,,,,0.8,0.6,0.6,4*3E
$GNVTG,,T,,M,0.0,N,0.0,K,A*3D
$GNRMC,100308.00,A,5200.057854,N,00422.755015,E,0.0,,191120,1.8,W,A,V*6F
$GNGGA,100308.00,5200.057854,N,00422.755015,E,1,12,0.6,1.1,M,47.0,M,,*75
$GPGSV,3,1,11,02,23,312,40,03,37,097,43,04,67,074,43,06,61,277,33,1*6D
$GPGSV,3,2,11,09,66,213,24,19,23,240,36,22,16,104,42,26,04,059,25,1*6F
$GPGSV,3,3,11,31,04,025,27,07,10,171,,17,14,226,,1*54
$GPGSV,1,1,04,03,37,097,44,04,67,074,47,06,61,277,44,09,66,213,,8*6F
$GLGSV,3,1,10,66,36,059,43,82,46,219,25,77,10,125,24,76,28,074,43,1*7E
$GLGSV,3,2,10,83,49,300,31,67,73,320,38,68,27,262,32,75,17,021,,1*7B
$GLGSV,3,3,10,84,04,343,,81,07,184,,1*76
$GAGSV,3,1,09,02,13,066,37,07,85,105,41,08,32,064,41,25,08,016,35,7*77
$GAGSV,3,2,09,26,54,210,25,33,45,298,43,12,02,327,,13,13,167,,7*78
$GAGSV,3,3,09,30,02,111,,7*4A
$GAGSV,3,1,09,02,13,066,37,07,85,105,48,08,32,064,39,33,45,298,43,1*7C
$GAGSV,3,2,09,12,02,327,,13,13,167,,25,08,016,,26,54,210,,1*74
$GAGSV,3,3,09,30,02,111,,1*4C
$GQGSV,1,1,01,-190,04,035,24,1*45
$GQGSV,1,1,01,-190,04,035,26,8*4E
$GBGSV,3,1,11,33,78,061,45,28,30,217,23,27,37,284,41,26,25,059,40,1*70
$GBGSV,3,2,11,24,24,112,45,14,49,078,46,09,18,049,34,05,11,119,34,1*70
$GBGSV,3,3,11,07,02,063,,25,00,000,,30,09,331,,1*4A
$GBGSV,2,1,06,24,24,112,43,26,25,059,39,27,37,284,31,28,30,217,27,5*72
$GBGSV,2,2,06,30,09,331,30,33,78,061,47,5*77
$GIGSV,1,1,03,02,09,123,33,06,26,144,35,09,21,113,38,1*42
$GNGSA,A,3,02,03,04,06,09,19,22,,,,,,0.8,0.6,0.6,1*3B
$GNGSA,A,3,66,67,68,76,77,83,,,,,,,0.8,0.6,0.6,2*3F
$GNGSA,A,3,02,07,08,25,26,33,,,,,,,0.8,0.6,0.6,3*35
$GNGSA,A,3,09,14,24,26,27,28,30,33,,,,,0.8,0.6,0.6,4*3E
$GNVTG,,T,,M,0.0,N,0.0,K,A*3D
$GNRMC,100309.00,A,5200.057837,N,00422.755002,E,0.0,,191120,1.8,W,A,V*6D
$GNGGA,100309.00,5200.057837,N,00422.755002,E,1,12,0.6,1.1,M,47.0,M,,*77
$GPGSV,3,1,11,02,23,312,40,03,37,097,43,04,67,074,42,06,61,277,32,1*6D
$GPGSV,3,2,11,09,66,213,24,19,23,240,36,22,16,104,41,26,04,059,25,1*6C
$GPGSV,3,3,11,31,04,025,29,07,10,171,,17,14,226,,1*5A
$GPGSV,1,1,04,03,37,097,43,04,67,074,47,06,61,277,43,09,66,213,,8*6F
$GLGSV,3,1,10,66,36,059,42,82,46,219,25,77,10,125,24,76,28,074,43,1*7F
$GLGSV,3,2,10,83,49,300,31,67,73,320,38,68,27,262,29,75,17,021,,1*71
$GLGSV,3,3,10,84,04,343,,81,07,184,,1*76
$GAGSV,3,1,09,02,13,066,36,07,85,105,42,08,32,064,42,25,08,016,35,7*76
$GAGSV,3,2,09,26,54,210,25,33,45,298,43,12,02,327,,13,13,167,,7*78
$GAGSV,3,3,09,30,02,111,,7*4A
$GAGSV,3,1,09,02,13,066,36,07,85,105,48,08,32,064,39,33,45,298,43,1*7D
$GAGSV,3,2,09,12,02,327,,13,13,167,,25,08,016,,26,54,210,,1*74
$GAGSV,3,3,09,30,02,111,,1*4C
$GQGSV,1,1,01,-190,04,035,24,1*45
$GQGSV,1,1,01,-190,04,035,26,8*4E
$GBGSV,3,1,11,33,78,061,45,30,09,331,28,28,30,217,23,27,37,284,41,1*7A
$GBGSV,3,2,11,26,25,059,41,24,24,112,45,14,49,078,45,09,18,049,35,1*73
$GBGSV,3,3,11,05,11,119,38,07,02,063,,25,00,000,,1*46
$GBGSV,2,1,07,24,24,112,44,26,25,059,39,27,37,284,31,28,30,217,24,5*77
$GBGSV,2,2,07,30,09,331,29,33,78,061,47,25,00,000,,5*49
$GIGSV,1,1,03,02,09,123,34,06,26,144,34,09,21,113,38,1*44
$GNGSA,A,3,02,03,04,06,09,19,22,,,,,,0.9,0.6,0.6,1*3A
$GNGSA,A,3,66,67,68,76,77,83,,,,,,,0.9,0.6,0.6,2*3E
$GNGSA,A,3,02,07,08,25,33,,,,,,,,0.9,0.6,0.6,3*30
$GNGSA,A,3,09,14,24,26,27,28,30,33,,,,,0.9,0.6,0.6,4*3F
$GNVTG,,T,,M,0.0,N,0.0,K,A*3D
$GNRMC,100310.00,A,5200.057825,N,00422.754990,E,0.0,,191120,1.8,W,A,V*65
$GPGSV,3,1,11,02,23,312,40,03,37,097,42,04,67,074,42,06,61,277,32,1*6C
$GPGSV,3,2,11,09,66,213,25,19,23,240,36,22,16,104,42,31,04,025,28,1*6E
$GPGSV,3,3,11,07,10,171,,17,14,226,,26,04,059,,1*5C
$GPGSV,1,1,04,03,37,097,43,04,67,074,47,06,61,277,43,09,66,213,,8*6F
$GLGSV,3,1,10,66,36,059,43,82,46,219,25,77,10,125,24,76,28,074,43,1*7E
$GLGSV,3,2,10,83,49,300,30,67,73,320,39,68,27,262,29,75,17,021,,1*71
$GLGSV,3,3,10,84,04,343,,81,07,184,,1*76
$GAGSV,3,1,09,02,13,066,36,07,85,105,42,08,32,064,41,25,08,016,35,7*75
$GAGSV,3,2,09,26,54,210,25,33,45,298,43,12,02,327,,13,13,167,,7*78
$GAGSV,3,3,09,30,02,111,,7*4A
$GAGSV,2,1,08,02,13,066,36,07,85,105,48,08,32,064,38,33,45,298,43,1*7C
$GAGSV,2,2,08,12,02,327,,13,13,167,,25,08,016,,30,02,111,,1*72
$GQGSV,1,1,01,-190,04,035,24,1*45
$GQGSV,1,1,01,-190,04,035,27,8*4F
$GBGSV,3,1,11,33,78,061,45,30,09,331,28,28,30,217,26,27,37,284,41,1*7F
$GBGSV,3,2,11,26,25,059,41,24,24,112,44,14,49,078,46,09,18,049,34,1*70
$GBGSV,3,3,11,05,11,119,37,07,02,063,,25,00,000,,1*49
$GBGSV,2,1,07,24,24,112,44,26,25,059,39,27,37,284,30,28,30,217,24,5*76
$GBGSV,2,2,07,30,09,331,29,33,78,061,47,25,00,000,,5*49
$GIGSV,1,1,03,02,09,123,32,06,26,144,35,09,21,113,38,1*43
$GNGSA,A,3,02,03,04,06,09,19,22,,,,,,0.9,0.6,0.6,1*3A
$GNGSA,A,3,66,67,68,76,77,83,,,,,,,0.9,0.6,0.6,2*3E
$GNGSA,A,3,02,07,08,25,33,,,,,,,,0.9,0.6,0.6,3*30
$GNGSA,A,3,09,14,24,26,27,28,30,33,,,,,0.9,0.6,0.6,4*3F
$GNVTG,,T,,M,0.0,N,0.0,K,A*3D
$GNRMC,100311.00,A,5200.057797,N,00422.754968,E,0.0,,191120,1.8,W,A,V*65
$GNGGA,100311.00,5200.057797,N,00422.754968,E,1,12,0.6,1.0,M,47.0,M,,*7E
$GPGSV,3,1,11,02,23,312,40,03,37,097,43,04,67,074,43,06,61,277,33,1*6D
$GPGSV,3,2,11,09,66,213,25,19,23,240,34,22,16,104,43,31,04,025,30,1*64
$GPGSV,3,3,11,07,10,171,,17,14,226,,26,04,059,,1*5C
$GPGSV,1,1,04,03,37,097,44,04,67,074,47,06,61,277,43,09,66,213,,8*68
$GLGSV,3,1,10,66,36,059,43,82,46,219,25,77,10,125,24,76,28,074,42,1*7F
$GLGSV,3,2,10,83,49,300,31,67,73,320,38,68,27,262,31,75,17,021,,1*78
$GLGSV,3,3,10,84,04,343,,81,07,184,,1*76
$GAGSV,3,1,09,02,13,066,37,07,85,105,42,08,32,064,41,25,08,016,35,7*74
$GAGSV,3,2,09,26,54,210,25,33,45,298,43,12,02,327,,13,13,167,,7*78
$GAGSV,3,3,09,30,02,111,,7*4A
$GAGSV,3,1,09,02,13,066,36,07,85,105,48,08,32,064,39,33,45,298,43,1*7D
$GAGSV,3,2,09,12,02,327,,13,13,167,,25,08,016,,26,54,210,,1*74
$GAGSV,3,3,09,30,02,111,,1*4C
$GQGSV,1,1,01,-190,04,035,24,1*45
$GQGSV,1,1,01,-190,04,035,25,8*4D
$GBGSV,3,1,11,33,78,061,44,30,09,331,26,28,30,217,26,27,37,284,42,1*73
$GBGSV,3,2,11,26,25,059,40,24,24,112,44,14,49,078,45,09,18,049,34,1*72
$GBGSV,3,3,11,05,11,119,37,07,02,063,,25,00,000,,1*49
$GBGSV,2,1,07,24,24,112,44,26,25,059,39,27,37,284,30,28,30,217,24,5*76
$GBGSV,2,2,07,30,09,331,29,33,78,061,47,25,00,000,,5*49
$GIGSV,1,1,03,02,09,123,31,06,26,144,34,09,21,113,39,1*40
$GNGSA,A,3,02,03,04,06,09,19,22,,,,,,0.9,0.6,0.6,1*3A
$GNGSA,A,3,66,67,68,76,77,83,,,,,,,0.9,0.6,0.6,2*3E
$GNGSA,A,3,02,07,08,25,33,,,,,,,,0.9,0.6,0.6,3*30
$GNGSA,A,3,09,14,24,26,27,28,30,33,,,,,0.9,0.6,0.6,4*3F
$GNVTG,,T,,M,0.0,N,0.0,K,A*3D
$GNRMC,100312.00,A,5200.057767,N,00422.754942,E,0.0,,191120,1.8,W,A,V*61
$GNGGA,100312.00,5200.057767,N,00422.754942,E,1,12,0.6,0.9,M,47.0,M,,*72
$GPGSV,3,1,11,02,23,312,39,03,37,097,42,04,67,074,43,06,61,277,34,1*65
$GPGSV,3,2,11,09,66,213,26,19,23,240,33,22,16,104,42,31,04,025,27,1*67
$GPGSV,3,3,11,07,10,171,,17,14,226,,26,04,059,,1*5C
$GPGSV,1,1,04,03,37,097,43,04,67,074,47,06,61,277,43,09,66,213,,8*6F
$GLGSV,3,1,10,66,36,059,44,82,46,219,25,77,10,125,24,76,28,074,43,1*79
$GLGSV,3,2,10,83,49,300,31,81,07,184,24,67,73,320,40,68,27,262,34,1*70
$GLGSV,3,3,10,75,17,021,,84,04,343,,1*72
$GAGSV,3,1,09,02,13,066,36,07,85,105,41,08,32,064,41,25,08,016,35,7*76
$GAGSV,3,2,09,26,54,210,25,33,45,298,43,12,02,327,,13,13,167,,7*78
$GAGSV,3,3,09,30,02,111,,7*4A
$GAGSV,3,1,09,02,13,066,36,07,85,105,48,08,32,064,39,33,45,298,43,1*7D
$GAGSV,3,2,09,12,02,327,,13,13,167,,25,08,016,,26,54,210,,1*74
$GAGSV,3,3,09,30,02,111,,1*4C
$GQGSV,1,1,01,-190,04,035,24,1*45
$GQGSV,1,1,01,-190,04,035,26,8*4E
$GBGSV,3,1,11,33,78,061,44,30,09,331,25,28,30,217,25,27,37,284,41,1*70
$GBGSV,3,2,11,26,25,059,40,24,24,112,44,14,49,078,45,09,18,049,34,1*72
$GBGSV,3,3,11,05,11,119,36,07,02,063,,25,00,000,,1*48
$GBGSV,2,1,07,24,24,112,44,26,25,059,40,27,37,284,30,28,30,217,24,5*78
$GBGSV,2,2,07,30,09,331,27,33,78,061,47,25,00,000,,5*47
$GIGSV,1,1,03,02,09,123,32,06,26,144,34,09,21,113,38,1*42
$GNGSA,A,3,02,03,04,06,09,19,22,,,,,,0.9,0.6,0.6,1*3A
$GNGSA,A,3,66,67,68,76,77,83,,,,,,,0.9,0.6,0.6,2*3E
$GNGSA,A,3,02,07,08,25,33,,,,,,,,0.9,0.6,0.6,3*30
$GNGSA,A,3,09,14,24,26,27,28,30,33,,,,,0.9,0.6,0.6,4*3F
$GNVTG,,T,,M,0.0,N,0.0,K,A*3D
$GNRMC,100313.00,A,5200.057727,N,00422.754917,E,0.0,,191120,1.8,W,A,V*64
$GNGGA,100313.00,5200.057727,N,00422.754917,E,1,12,0.6,0.8,M,47.0,M,,*76
$GPGSV,3,1,11,02,23,312,39,03,37,097,43,04,67,074,43,06,61,277,33,1*63
$GPGSV,3,2,11,07,10,171,23,09,66,213,27,19,23,240,36,22,16,104,42,1*67
$GPGSV,3,3,11,31,04,025,27,17,14,226,,26,04,059,,1*59
$GPGSV,1,1,04,03,37,097,44,04,67,074,47,06,61,277,43,09,66,213,,8*68
$GLGSV,3,1,10,66,36,059,44,82,46,219,25,77,10,125,24,76,28,074,42,1*78
$GLGSV,3,2,10,83,49,300,31,81,07,184,24,67,73,320,39,68,27,262,29,1*72
$GLGSV,3,3,10,75,17,021,,84,04,343,,1*72
$GAGSV,3,1,09,02,13,066,36,07,85,105,42,08,32,064,41,25,08,016,34,7*74
$GAGSV,3,2,09,26,54,210,25,33,45,298,42,12,02,327,,13,13,167,,7*79
$GAGSV,3,3,09,30,02,111,,7*4A
$GAGSV,3,1,09,02,13,066,36,07,85,105,48,08,32,064,39,33,45,298,43,1*7D
$GAGSV,3,2,09,12,02,327,,13,13,167,,25,08,016,,26,54,210,,1*74
$GAGSV,3,3,09,30,02,111,,1*4C
$GQGSV,1,1,01,-190,04,035,24,1*45
$GQGSV,1,1,01,-190,04,035,26,8*4E
$GBGSV,3,1,11,33,78,061,44,30,09,331,26,28,30,217,26,27,37,284,42,1*73
$GBGSV,3,2,11,26,25,059,41,24,24,112,44,14,49,078,45,09,18,049,34,1*73
$GBGSV,3,3,11,05,11,119,37,07,02,063,,25,00,000,,1*49
$GBGSV,2,1,07,24,24,112,44,26,25,059,39,27,37,284,31,28,30,217,24,5*77
$GBGSV,2,2,07,30,09,331,29,33,78,061,47,25,00,000,,5*49
$GIGSV,1,1,03,02,09,123,32,06,26,144,34,09,21,113,39,1*43
$GNGSA,A,3,02,03,04,06,09,19,22,,,,,,0.9,0.6,0.6,1*3A
$GNGSA,A,3,66,67,68,76,83,,,,,,,,0.9,0.6,0.6,2*3E
$GNGSA,A,3,02,07,08,25,33,,,,,,,,0.9,0.6,0.6,3*30
$GNGSA,A,3,09,14,24,26,27,28,30,33,,,,,0.9,0.6,0.6,4*3F
$GNVTG,,T,,M,0.0,N,0.0,K,A*3D
$GNRMC,100314.00,A,5200.057682,N,00422.754885,E,0.0,,191120,1.8,W,A,V*67
$GNGGA,100314.00,5200.057682,N,00422.754885,E,1,12,0.6,0.8,M,47.0,M,,*75
$GPGSV,3,1,11,02,23,312,39,03,37,097,43,04,67,074,43,06,61,277,33,1*63
$GPGSV,3,2,11,07,10,171,23,09,66,213,26,19,23,240,36,22,16,104,42,1*66
$GPGSV,3,3,11,31,04,025,28,17,14,226,,26,04,059,,1*56
$GPGSV,1,1,04,03,37,097,44,04,67,074,47,06,61,277,43,09,66,213,,8*68
$GLGSV,3,1,10,66,36,059,45,82,46,219,25,77,10,125,24,76,28,074,43,1*78
$GLGSV,3,2,10,83,49,300,32,81,07,184,24,67,73,320,41,68,27,262,31,1*77
$GLGSV,3,3,10,75,17,021,,84,04,343,,1*72
$GAGSV,3,1,09,02,13,066,36,07,85,105,42,08,32,064,41,25,08,016,34,7*74
$GAGSV,3,2,09,26,54,210,25,33,45,298,43,12,02,327,,13,13,167,,7*78
$GAGSV,3,3,09,30,02,111,,7*4A
$GAGSV,2,1,06,02,13,066,36,07,85,105,48,08,32,064,38,33,45,298,43,1*72
$GAGSV,2,2,06,25,08,016,,26,54,210,,1*7D
$GQGSV,1,1,01,-190,04,035,24,1*45
$GQGSV,1,1,01,-190,04,035,26,8*4E
$GBGSV,3,1,11,33,78,061,44,30,09,331,27,28,30,217,25,27,37,284,42,1*71
$GBGSV,3,2,11,26,25,059,40,24,24,112,44,14,49,078,45,09,18,049,34,1*72
$GBGSV,3,3,11,07,02,063,24,05,11,119,37,25,00,000,,1*4F
$GBGSV,2,1,07,24,24,112,44,26,25,059,40,27,37,284,30,28,30,217,26,5*7A
$GBGSV,2,2,07,30,09,331,28,33,78,061,46,25,00,000,,5*49
$GIGSV,1,1,03,02,09,123,32,06,26,144,34,09,21,113,39,1*43
$GNGSA,A,3,02,03,04,06,09,19,22,,,,,,0.9,0.6,0.6,1*3A
$GNGSA,A,3,66,67,68,76,83,,,,,,,,0.9,0.6,0.6,2*3E
$GNGSA,A,3,02,07,08,25,33,,,,,,,,0.9,0.6,0.6,3*30
$GNGSA,A,3,09,14,24,26,27,28,30,33,,,,,0.9,0.6,0.6,4*3F
$GNVTG,,T,,M,0.0,N,0.0,K,A*3D
$GNRMC,100315.00,A,5200.057637,N,00422.754849,E,0.0,,191120,1.8,W,A,V*68
$GNGGA,100315.00,5200.057637,N,00422.754849,E,1,12,0.6,0.7,M,47.0,M,,*75
$GPGSV,3,1,11,02,23,312,39,03,37,097,43,04,67,074,43,06,61,277,33,1*63
$GPGSV,3,2,11,07,10,171,23,09,66,213,27,19,23,240,33,22,16,104,42,1*62
$GPGSV,3,3,11,31,04,025,27,17,14,226,,26,04,059,,1*59
$GPGSV,1,1,04,03,37,097,44,04,67,074,47,06,61,277,43,09,66,213,,8*68
$GLGSV,3,1,10,66,36,059,44,82,46,219,25,77,10,125,24,76,28,074,42,1*78
$GLGSV,3,2,10,83,49,300,30,81,07,184,24,67,73,320,39,68,27,262,33,1*78
$GLGSV,3,3,10,75,17,021,,84,04,343,,1*72
$GAGSV,3,1,09,02,13,066,37,07,85,105,42,08,32,064,41,25,08,016,35,7*74
$GAGSV,3,2,09,26,54,210,25,33,45,298,43,12,02,327,,13,13,167,,7*78
$GAGSV,3,3,09,30,02,111,,7*4A
$GAGSV,3,1,09,02,13,066,36,07,85,105,48,08,32,064,39,33,45,298,43,1*7D
$GAGSV,3,2,09,12,02,327,,13,13,167,,25,08,016,,26,54,210,,1*74
$GAGSV,3,3,09,30,02,111,,1*4C
$GQGSV,1,1,01,-190,04,035,24,1*45
$GQGSV,1,1,01,-190,04,035,25,8*4D
$GBGSV,3,1,11,33,78,061,44,28,30,217,25,27,37,284,42,26,25,059,41,1*75
$GBGSV,3,2,11,24,24,112,44,14,49,078,45,09,18,049,34,07,02,063,24,1*7F
$GBGSV,3,3,11,05,11,119,36,25,00,000,,30,09,331,,1*43
$GBGSV,2,1,07,24,24,112,44,26,25,059,39,27,37,284,31,28,30,217,26,5*75
$GBGSV,2,2,07,30,09,331,30,33,78,061,47,25,00,000,,5*41
$GIGSV,1,1,03,02,09,123,32,06,26,144,34,09,21,113,39,1*43
$GNGSA,A,3,02,03,04,06,09,19,22,,,,,,0.9,0.6,0.6,1*3A
$GNGSA,A,3,66,67,68,76,83,,,,,,,,0.9,0.6,0.6,2*3E
$GNGSA,A,3,02,07,08,25,33,,,,,,,,0.9,0.6,0.6,3*30
$GNGSA,A,3,09,14,24,26,27,28,30,33,,,,,0.9,0.6,0.6,4*3F
$GNVTG,,T,,M,0.0,N,0.0,K,A*3D
$GNRMC,100316.00,A,5200.057597,N,00422.754820,E,0.0,,191120,1.8,W,A,V*6D
$GNGGA,100316.00,5200.057597,N,00422.754820,E,1,12,0.6,0.6,M,47.0,M,,*71
$GPGSV,3,1,11,02,23,312,38,03,37,097,44,04,67,074,43,06,61,277,33,1*65
$GPGSV,3,2,11,07,10,171,23,09,66,213,27,19,23,240,33,22,16,104,43,1*63
$GPGSV,3,3,11,31,04,025,25,17,14,226,,26,04,059,,1*5B
$GPGSV,1,1,04,03,37,097,44,04,67,074,47,06,61,277,43,09,66,213,,8*68
$GLGSV,3,1,10,66,36,059,45,82,46,219,25,77,10,125,25,76,28,074,43,1*79
$GLGSV,3,2,10,83,49,300,31,81,07,184,24,67,73,320,41,68,27,262,33,1*76
$GLGSV,3,3,10,75,17,021,,84,04,343,,1*72
$GAGSV,3,1,09,02,13,066,36,07,85,105,41,08,32,064,41,25,08,016,34,7*77
$GAGSV,3,2,09,26,54,210,25,33,45,298,43,12,02,327,,13,13,167,,7*78
$GAGSV,3,3,09,30,02,111,,7*4A
$GAGSV,2,1,08,02,13,066,36,07,85,105,48,08,32,064,39,33,45,298,43,1*7D
$GAGSV,2,2,08,12,02,327,,13,13,167,,26,54,210,,30,02,111,,1*7C
$GQGSV,1,1,01,-190,04,035,24,1*45
$GQGSV,1,1,01,-190,04,035,24,8*4C
$GBGSV,3,1,11,33,78,061,44,28,30,217,25,27,37,284,42,26,25,059,41,1*75
$GBGSV,3,2,11,24,24,112,44,14,49,078,45,09,18,049,34,07,02,063,24,1*7F
$GBGSV,3,3,11,05,11,119,36,25,00,000,,30,09,331,,1*43
$GBGSV,2,1,07,24,24,112,44,26,25,059,40,27,37,284,30,28,30,217,25,5*79
$GBGSV,2,2,07,30,09,331,29,33,78,061,46,25,00,000,,5*48
$GIGSV,1,1,03,02,09,123,32,06,26,144,34,09,21,113,38,1*42
$GNGSA,A,3,02,03,04,06,09,19,22,,,,,,0.9,0.6,0.6,1*3A
$GNGSA,A,3,66,67,68,76,77,83,,,,,,,0.9,0.6,0.6,2*3E
$GNGSA,A,3,02,07,08,25,33,,,,,,,,0.9,0.6,0.6,3*30
$GNGSA,A,3,09,14,24,26,27,28,30,33,,,,,0.9,0.6,0.6,4*3F
$GNVTG,,T,,M,0.0,N,0.0,K,A*3D
$GNRMC,100317.00,A,5200.057559,N,00422.754797,E,0.0,,191120,1.8,W,A,V*6D
$GNGGA,100317.00,5200.057559,N,00422.754797,E,1,12,0.6,0.6,M,47.0,M,,*71
$GPGSV,3,1,11,02,23,312,39,03,37,097,44,04,67,074,43,06,61,277,32,1*65
$GPGSV,3,2,11,07,10,171,23,09,66,213,27,19,23,240,34,22,16,104,43,1*64
$GPGSV,3,3,11,31,04,025,25,17,14,226,,26,04,059,,1*5B
$GPGSV,1,1,04,03,37,097,44,04,67,074,47,06,61,277,43,09,66,213,,8*68
$GLGSV,3,1,10,66,36,059,43,82,46,219,25,77,10,125,25,76,28,074,42,1*7E
$GLGSV,3,2,10,83,49,300,30,81,07,184,24,67,73,320,39,68,27,262,33,1*78
$GLGSV,3,3,10,75,17,021,,84,04,343,,1*72
$GAGSV,3,1,09,02,13,066,36,07,85,105,41,08,32,064,41,25,08,016,34,7*77
$GAGSV,3,2,09,26,54,210,25,33,45,298,43,12,02,327,,13,13,167,,7*78
$GAGSV,3,3,09,30,02,111,,7*4A
$GAGSV,3,1,09,02,13,066,37,07,85,105,48,08,32,064,39,25,08,016,27,1*74
$GAGSV,3,2,09,33,45,298,43,12,02,327,,13,13,167,,26,54,210,,1*79
$GAGSV,3,3,09,30,02,111,,1*4C
$GQGSV,1,1,01,-190,04,035,23,1*42
$GQGSV,1,1,01,-190,04,035,26,8*4E
$GBGSV,3,1,11,33,78,061,44,28,30,217,25,27,37,284,42,26,25,059,41,1*75
$GBGSV,3,2,11,24,24,112,44,14,49,078,44,09,18,049,34,07,02,063,24,1*7E
$GBGSV,3,3,11,05,11,119,36,25,00,000,,30,09,331,,1*43
$GBGSV,2,1,07,24,24,112,44,26,25,059,39,27,37,284,29,28,30,217,25,5*7F
$GBGSV,2,2,07,30,09,331,29,33,78,061,47,25,00,000,,5*49
$GIGSV,1,1,03,02,09,123,33,06,26,144,35,09,21,113,39,1*43
$GNGSA,A,3,02,03,04,06,09,19,22,,,,,,0.9,0.6,0.6,1*3A
$GNGSA,A,3,66,67,68,76,77,83,,,,,,,0.9,0.6,0.6,2*3E
$GNGSA,A,3,02,07,08,25,33,,,,,,,,0.9,0.6,0.6,3*30
$GNGSA,A,3,09,14,24,26,27,28,30,33,,,,,0.9,0.6,0.6,4*3F
$GNVTG,,T,,M,0.0,N,0.0,K,A*3D
$GNRMC,100318.00,A,5200.057526,N,00422.754781,E,0.0,,191120,1.8,W,A,V*6D
$GNGGA,100318.00,5200.057526,N,00422.754781,E,1,12,0.6,0.5,M,47.0,M,,*72
$GPGSV,3,1,11,02,23,312,40,03,37,097,44,04,67,074,43,06,61,277,31,1*68
$GPGSV,3,2,11,07,10,171,23,09,66,213,27,19,23,240,35,22,16,104,43,1*65
$GPGSV,3,3,11,31,04,025,26,17,14,226,,26,04,059,,1*58
$GPGSV,1,1,04,03,37,097,44,04,67,074,47,06,61,277,43,09,66,213,,8*68
$GLGSV,3,1,10,66,36,059,44,82,46,219,25,77,10,125,25,76,28,074,44,1*7F
$GLGSV,3,2,10,83,49,300,32,81,07,184,24,67,73,320,41,68,27,262,31,1*77
$GLGSV,3,3,10,75,17,021,,84,04,343,,1*72
$GAGSV,3,1,09,02,13,066,35,07,85,105,42,08,32,064,42,25,08,016,33,7*73
$GAGSV,3,2,09,26,54,210,25,33,45,298,43,12,02,327,,13,13,167,,7*78
$GAGSV,3,3,09,30,02,111,,7*4A
$GAGSV,3,1,09,02,13,066,36,07,85,105,48,08,32,064,39,25,08,016,27,1*75
$GAGSV,3,2,09,33,45,298,43,12,02,327,,13,13,167,,26,54,210,,1*79
$GAGSV,3,3,09,30,02,111,,1*4C
$GQGSV,1,1,01,-190,04,035,23,1*42
$GQGSV,1,1,01,-190,04,035,26,8*4E
$GBGSV,3,1,11,33,78,061,45,30,09,331,26,28,30,217,25,27,37,284,43,1*70
$GBGSV,3,2,11,26,25,059,41,24,24,112,45,14,49,078,45,09,18,049,34,1*72
$GBGSV,3,3,11,07,02,063,24,05,11,119,38,25,00,000,,1*40
$GBGSV,2,1,07,24,24,112,44,26,25,059,39,27,37,284,29,28,30,217,25,5*7F
$GBGSV,2,2,07,30,09,331,28,33,78,061,46,25,00,000,,5*49
$GIGSV,1,1,03,02,09,123,34,06,26,144,34,09,21,113,39,1*45
$GNGSA,A,3,02,03,04,06,09,19,22,,,,,,0.9,0.6,0.6,1*3A
$GNGSA,A,3,66,67,68,76,77,83,,,,,,,0.9,0.6,0.6,2*3E
$GNGSA,A,3,02,07,08,25,33,,,,,,,,0.9,0.6,0.6,3*30
$GNGSA,A,3,09,14,24,26,27,28,30,33,,,,,0.9,0.6,0.6,4*3F
$GNVTG,,T,,M,0.0,N,0.0,K,A*3D
$GNRMC,100319.00,A,5200.057503,N,00422.754768,E,0.0,,191120,1.8,W,A,V*6C
$GNGGA,100319.00,5200.057503,N,00422.754768,E,1,12,0.6,0.4,M,47.0,M,,*72
$GPGSV,3,1,11,02,23,312,40,03,37,097,44,04,67,074,42,06,61,277,31,1*69
$GPGSV,3,2,11,07,10,171,23,09,66,213,27,19,23,240,35,22,16,104,43,1*65
$GPGSV,3,3,11,31,04,025,26,17,14,226,,26,04,059,,1*58
$GPGSV,1,1,04,03,37,097,44,04,67,074,47,06,61,277,43,09,66,213,,8*68
$GLGSV,3,1,10,66,36,059,43,82,46,219,25,77,10,125,25,76,28,074,43,1*7F
$GLGSV,3,2,10,83,49,300,31,81,07,184,24,67,73,320,40,68,27,262,30,1*74
$GLGSV,3,3,10,75,17,021,,84,04,343,,1*72
$GAGSV,3,1,09,02,13,066,37,07,85,105,42,08,32,064,42,25,08,016,34,7*76
$GAGSV,3,2,09,26,54,210,25,33,45,298,43,12,02,327,,13,13,167,,7*78
$GAGSV,3,3,09,30,02,111,,7*4A
$GAGSV,3,1,09,02,13,066,37,07,85,105,48,08,32,064,39,25,08,016,28,1*7B
$GAGSV,3,2,09,33,45,298,43,12,02,327,,13,13,167,,26,54,210,,1*79
$GAGSV,3,3,09,30,02,111,,1*4C
$GQGSV,1,1,01,-190,04,035,23,1*42
$GQGSV,1,1,01,-190,04,035,24,8*4C
$GBGSV,3,1,11,33,78,061,45,28,30,217,25,27,37,284,43,26,25,059,41,1*75
$GBGSV,3,2,11,24,24,112,45,14,49,078,45,09,18,049,33,07,02,063,24,1*79
$GBGSV,3,3,11,05,11,119,36,25,00,000,,30,09,331,,1*43
$GBGSV,2,1,07,24,24,112,44,26,25,059,39,27,37,284,30,28,30,217,24,5*76
$GBGSV,2,2,07,30,09,331,28,33,78,061,46,25,00,000,,5*49
$GIGSV,1,1,03,02,09,123,32,06,26,144,34,09,21,113,39,1*43
$GNGSA,A,3,02,03,04,06,09,19,22,,,,,,0.9,0.6,0.6,1*3A
$GNGSA,A,3,66,67,68,76,77,83,,,,,,,0.9,0.6,0.6,2*3E
$GNGSA,A,3,02,07,08,25,33,,,,,,,,0.9,0.6,0.6,3*30
$GNGSA,A,3,09,14,24,26,27,28,30,33,,,,,0.9,0.6,0.6,4*3F
$GNVTG,,T,,M,0.0,N,0.0,K,A*3D
$GNRMC,100320.00,A,5200.057486,N,00422.754760,E,0.0,,191120,1.8,W,A,V*62
$GNGGA,100320.00,5200.057486,N,00422.754760,E,1,12,0.6,0.4,M,47.0,M,,*7C
$GPGSV,3,1,11,02,23,312,39,03,37,097,43,04,67,074,42,06,61,277,30,1*61
$GPGSV,3,2,11,07,10,171,23,09,66,213,25,19,23,240,31,22,16,104,43,1*63
$GPGSV,3,3,11,31,04,025,24,17,14,226,,26,04,059,,1*5A
$GPGSV,1,1,04,03,37,097,44,04,67,074,47,06,61,277,43,09,66,213,,8*68
$GLGSV,3,1,10,66,36,059,45,82,46,219,25,77,10,125,25,76,28,074,44,1*7E
$GLGSV,3,2,10,83,49,300,31,81,07,184,24,67,73,320,40,68,27,262,33,1*77
$GLGSV,3,3,10,75,17,021,,84,04,343,,1*72
$GAGSV,3,1,09,02,13,066,36,07,85,102,41,08,32,064,42,25,08,016,35,7*72
$GAGSV,3,2,09,26,54,210,25,33,45,298,43,12,02,327,,13,13,167,,7*78
$GAGSV,3,3,09,30,02,111,,7*4A
$GAGSV,3,1,09,02,13,066,36,07,85,102,48,08,32,064,39,25,08,016,27,1*72
$GAGSV,3,2,09,33,45,298,43,12,02,327,,13,13,167,,26,54,210,,1*79
$GAGSV,3,3,09,30,02,111,,1*4C
$GQGSV,1,1,01,-190,04,035,23,1*42
$GQGSV,1,1,01,-190,04,035,25,8*4D
$GBGSV,3,1,11,33,78,063,44,28,30,217,24,27,37,284,42,26,25,059,41,1*76
$GBGSV,3,2,11,24,24,112,44,14,49,078,45,09,18,049,34,07,02,063,24,1*7F
$GBGSV,3,3,11,05,11,119,35,25,00,000,,30,09,330,,1*41
$GBGSV,2,1,07,24,24,112,44,26,25,059,39,27,37,284,31,28,30,217,24,5*77
$GBGSV,2,2,07,30,09,330,29,33,78,063,47,25,00,000,,5*4A
$GIGSV,1,1,03,02,09,123,30,06,26,144,35,09,21,113,39,1*40
$GNGSA,A,3,02,03,04,06,09,19,22,,,,,,0.9,0.6,0.6,1*3A
$GNGSA,A,3,66,67,68,76,77,83,,,,,,,0.9,0.6,0.6,2*3E
$GNGSA,A,3,02,07,08,25,33,,,,,,,,0.9,0.6,0.6,3*30
$GNGSA,A,3,09,14,24,26,27,28,30,33,,,,,0.9,0.6,0.6,4*3F
$GNVTG,,T,,M,0.0,N,0.0,K,A*3D
$GNRMC,100321.00,A,5200.057464,N,00422.754751,E,0.0,,191120,1.8,W,A,V*6D
$GNGGA,100321.00,5200.057464,N,00422.754751,E,1,12,0.6,0.3,M,47.0,M,,*74
$GPGSV,3,1,11,02,23,312,39,03,37,097,43,04,67,074,42,06,61,277,31,1*60
$GPGSV,3,2,11,07,10,171,23,09,66,213,24,19,23,240,34,22,16,104,43,1*67
$GPGSV,3,3,11,31,04,025,25,17,14,226,,26,04,059,,1*5B
$GPGSV,1,1,04,03,37,097,43,04,67,074,47,06,61,277,44,09,66,213,,8*68
$GLGSV,3,1,10,66,36,059,44,82,46,219,25,77,10,125,25,76,28,074,43,1*78
$GLGSV,3,2,10,83,49,300,31,81,07,184,24,67,73,320,40,68,27,262,30,1*74
$GLGSV,3,3,10,75,17,021,,84,04,343,,1*72
$GAGSV,3,1,09,02,13,066,35,07,85,102,42,08,32,064,42,25,08,016,34,7*73
$GAGSV,3,2,09,26,54,210,25,33,45,298,43,12,02,327,,13,13,167,,7*78
$GAGSV,3,3,09,30,02,111,,7*4A
$GAGSV,3,1,09,02,13,066,36,07,85,102,48,08,32,064,39,25,08,016,29,1*7C
$GAGSV,3,2,09,33,45,298,43,12,02,327,,13,13,167,,26,54,210,,1*79
$GAGSV,3,3,09,30,02,111,,1*4C
$GQGSV,1,1,01,-190,04,035,23,1*42
$GQGSV,1,1,01,-190,04,035,25,8*4D
$GBGSV,3,1,11,33,78,063,45,28,30,217,25,27,37,284,43,26,25,059,41,1*77
$GBGSV,3,2,11,24,24,112,44,14,49,078,45,09,18,049,34,07,02,063,24,1*7F
$GBGSV,3,3,11,05,11,119,35,25,00,000,,30,09,330,,1*41
$GBGSV,2,1,07,24,24,112,44,26,25,059,39,27,37,284,30,28,30,217,25,5*77
$GBGSV,2,2,07,30,09,330,29,33,78,063,47,25,00,000,,5*4A
$GIGSV,1,1,03,02,09,123,30,06,26,144,34,09,21,113,38,1*40
$GNGSA,A,3,02,03,04,06,09,19,22,,,,,,0.9,0.6,0.6,1*3A
$GNGSA,A,3,66,67,68,76,77,83,,,,,,,0.9,0.6,0.6,2*3E
$GNGSA,A,3,02,07,08,25,33,,,,,,,,0.9,0.6,0.6,3*30
$GNGSA,A,3,09,14,24,26,27,28,30,33,,,,,0.9,0.6,0.6,4*3F
$GNVTG,,T,,M,0.0,N,0.0,K,A*3D
$GNRMC,100322.00,A,5200.057438,N,00422.754734,E,0.0,,191120,1.8,W,A,V*64
$GNGGA,100322.00,5200.057438,N,00422.754734,E,1,12,0.6,0.2,M,47.0,M,,*7C
$GPGSV,3,1,11,02,23,312,40,03,37,097,43,04,67,074,42,06,61,277,30,1*6F
$GPGSV,3,2,11,07,10,171,23,09,66,213,23,19,23,240,33,22,16,104,43,1*67
$GPGSV,3,3,11,31,04,025,26,17,14,226,,26,04,059,,1*58
$GPGSV,1,1,03,03,37,097,43,04,67,074,47,06,61,277,44,8*56
$GLGSV,3,1,10,66,36,059,46,82,46,219,25,77,10,125,25,76,28,074,43,1*7A
$GLGSV,3,2,10,83,49,300,32,81,07,184,24,67,73,320,41,68,27,262,31,1*77
$GLGSV,3,3,10,75,17,021,,84,04,343,,1*72
$GAGSV,3,1,09,02,13,066,36,07,85,102,42,08,32,064,43,25,08,016,35,7*70
$GAGSV,3,2,09,26,54,210,25,33,45,298,43,12,02,327,,13,13,167,,7*78
$GAGSV,3,3,09,30,02,111,,7*4A
$GAGSV,3,1,09,02,13,066,36,07,85,102,48,08,32,064,39,25,08,016,28,1*7D
$GAGSV,3,2,09,33,45,298,43,12,02,327,,13,13,167,,26,54,210,,1*79
$GAGSV,3,3,09,30,02,111,,1*4C
$GQGSV,1,1,01,-190,04,035,23,1*42
$GQGSV,1,1,01,-190,04,035,26,8*4E
$GBGSV,3,1,11,33,78,063,45,28,30,217,25,27,37,284,43,26,25,059,41,1*77
$GBGSV,3,2,11,24,24,112,44,14,49,078,45,09,18,049,33,07,02,063,24,1*78
$GBGSV,3,3,11,05,11,119,35,25,00,000,,30,09,330,,1*41
$GBGSV,2,1,07,24,24,112,44,26,25,059,39,27,37,284,28,28,30,217,25,5*7E
$GBGSV,2,2,07,30,09,330,29,33,78,063,47,25,00,000,,5*4A
$GIGSV,1,1,03,02,09,123,32,06,26,144,34,09,21,113,39,1*43
$GNGSA,A,3,02,03,04,06,09,19,22,,,,,,0.9,0.6,0.6,1*3A
$GNGSA,A,3,66,67,68,76,77,83,,,,,,,0.9,0.6,0.6,2*3E
$GNGSA,A,3,02,07,08,25,33,,,,,,,,0.9,0.6,0.6,3*30
$GNGSA,A,3,09,14,24,26,27,28,30,33,,,,,0.9,0.6,0.6,4*3F
$GNVTG,,T,,M,0.0,N,0.0,K,A*3D
$GNRMC,100323.00,A,5200.057409,N,00422.754716,E,0.0,,191120,1.8,W,A,V*67
$GNGGA,100323.00,5200.057409,N,00422.754716,E,1,12,0.6,0.2,M,47.0,M,,*7F
$GPGSV,3,1,11,02,23,312,39,03,37,097,43,04,67,074,41,06,61,277,29,1*6A
$GPGSV,3,2,11,07,10,171,23,09,66,213,24,19,23,240,34,22,16,104,43,1*67
$GPGSV,3,3,11,31,04,025,25,17,14,226,,26,04,059,,1*5B
$GPGSV,1,1,04,03,37,097,44,04,67,074,47,06,61,277,43,09,66,213,,8*68
$GLGSV,3,1,09,66,36,059,44,77,10,125,25,76,28,074,42,83,49,300,29,1*7A
$GLGSV,3,2,09,81,07,184,24,67,73,320,40,68,27,262,31,75,17,021,,1*7D
$GLGSV,3,3,09,84,04,343,,1*4D
$GAGSV,3,1,09,02,13,066,36,07,85,102,42,08,32,064,42,25,08,016,33,7*77
$GAGSV,3,2,09,26,54,210,25,33,45,298,43,12,02,327,,13,13,167,,7*78
$GAGSV,3,3,09,30,02,111,,7*4A
$GAGSV,3,1,09,02,13,066,35,07,85,102,48,08,32,064,39,25,08,016,28,1*7E
$GAGSV,3,2,09,33,45,298,43,12,02,327,,13,13,167,,26,54,210,,1*79
$GAGSV,3,3,09,30,02,111,,1*4C
$GQGSV,1,1,01,-190,04,035,23,1*42
$GQGSV,1,1,01,-190,04,035,24,8*4C
$GBGSV,3,1,11,33,78,063,45,30,09,330,26,28,30,217,24,27,37,284,43,1*72
$GBGSV,3,2,11,26,25,059,41,24,24,112,44,14,49,078,45,09,18,049,33,1*74
$GBGSV,3,3,11,07,02,063,24,05,11,119,34,25,00,000,,1*4C
$GBGSV,2,1,07,24,24,112,44,26,25,059,39,27,37,284,29,28,30,217,25,5*7F
$GBGSV,2,2,07,30,09,330,29,33,78,063,47,25,00,000,,5*4A
$GIGSV,1,1,03,02,09,123,31,06,26,144,34,09,21,113,39,1*40
$GNGSA,A,3,02,03,04,06,09,19,22,,,,,,0.9,0.6,0.6,1*3A
$GNGSA,A,3,66,67,68,76,77,83,,,,,,,0.9,0.6,0.6,2*3E
$GNGSA,A,3,02,07,08,25,33,,,,,,,,0.9,0.6,0.6,3*30
$GNGSA,A,3,09,14,24,26,27,28,30,33,,,,,0.9,0.6,0.6,4*3F
$GNVTG,,T,,M,0.0,N,0.0,K,A*3D
$GNRMC,100324.00,A,5200.057379,N,00422.754696,E,0.0,,191120,1.8,W,A,V*69
$GNGGA,100324.00,5200.057379,N,00422.754696,E,1,12,0.6,0.2,M,47.0,M,,*71
$GPGSV,3,1,11,02,23,312,39,03,37,097,44,04,67,074,42,06,61,277,29,1*6E
$GPGSV,3,2,11,07,10,171,23,09,66,213,23,19,23,240,35,22,16,104,43,1*61
$GPGSV,3,3,11,31,04,025,25,17,14,226,,26,04,059,,1*5B
$GPGSV,1,1,04,03,37,097,44,04,67,074,47,06,61,277,43,09,66,213,,8*68
$GLGSV,3,1,10,66,36,059,45,77,10,125,25,76,28,074,42,83,49,300,32,1*79
$GLGSV,3,2,10,81,07,184,24,67,73,320,41,68,27,262,31,82,46,219,,1*71
$GLGSV,3,3,10,75,17,021,,84,04,343,,1*72
$GAGSV,3,1,09,02,13,066,36,07,85,102,42,08,32,064,42,25,08,016,34,7*70
$GAGSV,3,2,09,26,54,210,25,33,45,298,43,12,02,327,,13,13,167,,7*78
$GAGSV,3,3,09,30,02,111,,7*4A
$GAGSV,3,1,09,02,13,066,36,07,85,102,48,08,32,064,39,25,08,016,29,1*7C
$GAGSV,3,2,09,33,45,298,43,12,02,327,,13,13,167,,26,54,210,,1*79
$GAGSV,3,3,09,30,02,111,,1*4C
$GQGSV,1,1,01,-190,04,035,23,1*42
$GQGSV,1,1,01,-190,04,035,25,8*4D
$GBGSV,3,1,11,33,78,063,45,28,30,217,24,27,37,284,43,26,25,059,40,1*77
$GBGSV,3,2,11,24,24,112,45,14,49,078,45,09,18,049,34,07,02,063,24,1*7E
$GBGSV,3,3,11,05,11,119,37,25,00,000,,30,09,330,,1*43
$GBGSV,2,1,06,24,24,112,44,26,25,059,38,27,37,284,28,28,30,217,26,5*7D
$GBGSV,2,2,06,30,09,330,29,33,78,063,46,5*7D
$GIGSV,1,1,03,02,09,123,30,06,26,144,34,09,21,113,38,1*40
$GNGSA,A,3,02,03,04,06,09,19,22,,,,,,0.9,0.6,0.6,1*3A
$GNGSA,A,3,66,67,68,76,83,,,,,,,,0.9,0.6,0.6,2*3E
$GNGSA,A,3,02,07,08,25,33,,,,,,,,0.9,0.6,0.6,3*30
$GNGSA,A,3,09,14,24,26,27,28,30,33,,,,,0.9,0.6,0.6,4*3F
$GNVTG,,T,,M,0.0,N,0.0,K,A*3D
$GNRMC,100325.00,A,5200.057347,N,00422.754676,E,0.0,,191120,1.8,W,A,V*6B
$GNGGA,100325.00,5200.057347,N,00422.754676,E,1,12,0.6,0.1,M,47.0,M,,*70
$GPGSV,3,1,11,02,23,312,40,03,37,097,44,04,67,074,41,06,61,277,30,1*6B
$GPGSV,3,2,11,07,10,171,23,09,66,213,23,19,23,240,35,22,16,104,43,1*61
$GPGSV,3,3,11,31,04,025,26,17,14,226,,26,04,059,,1*58
$GPGSV,1,1,04,03,37,097,44,04,67,074,47,06,61,277,44,09,66,213,,8*6F
$GLGSV,3,1,10,66,36,059,44,77,10,125,24,76,28,074,42,83,49,300,31,1*7A
$GLGSV,3,2,10,81,07,184,24,67,73,320,40,68,27,262,28,82,46,219,,1*78
$GLGSV,3,3,10,75,17,021,,84,04,343,,1*72
$GAGSV,3,1,09,02,13,066,35,07,85,102,42,08,32,064,42,25,08,016,34,7*73
$GAGSV,3,2,09,26,54,210,25,33,45,298,43,12,02,327,,13,13,167,,7*78
$GAGSV,3,3,09,30,02,111,,7*4A
$GAGSV,3,1,09,02,13,066,36,07,85,102,48,08,32,064,39,25,08,016,29,1*7C
$GAGSV,3,2,09,33,45,298,43,12,02,327,,13,13,167,,26,54,210,,1*79
$GAGSV,3,3,09,30,02,111,,1*4C
$GQGSV,1,1,01,-190,04,035,23,1*42
$GQGSV,1,1,01,-190,04,035,25,8*4D
$GBGSV,3,1,11,33,78,063,44,30,09,330,26,28,30,217,24,27,37,284,43,1*73
$GBGSV,3,2,11,26,25,059,40,24,24,112,44,14,49,078,45,09,18,049,33,1*75
$GBGSV,3,3,11,07,02,063,24,05,11,119,38,25,00,000,,1*40
$GBGSV,2,1,07,24,24,112,44,26,25,059,39,27,37,284,27,28,30,217,26,5*72
$GBGSV,2,2,07,30,09,330,28,33,78,063,46,25,00,000,,5*4A
$GIGSV,1,1,03,02,09,123,32,06,26,144,34,09,21,113,38,1*42
$GNGSA,A,3,02,03,04,06,09,19,22,,,,,,0.9,0.6,0.6,1*3A
$GNGSA,A,3,66,67,68,76,77,83,,,,,,,0.9,0.6,0.6,2*3E
$GNGSA,A,3,02,07,08,25,33,,,,,,,,0.9,0.6,0.6,3*30
$GNGSA,A,3,09,14,24,26,27,28,30,33,,,,,0.9,0.6,0.6,4*3F
$GNVTG,,T,,M,0.0,N,0.0,K,A*3D
$GNRMC,100326.00,A,5200.057319,N,00422.754659,E,0.0,,191120,1.8,W,A,V*6E
$GNGGA,100326.00,5200.057319,N,00422.754659,E,1,12,0.6,0.0,M,47.0,M,,*74
$GPGSV,3,1,11,02,23,312,39,03,37,097,44,04,67,074,41,06,61,277,30,1*65
$GPGSV,3,2,11,07,10,171,23,09,66,213,23,19,23,240,34,22,16,104,43,1*60
$GPGSV,3,3,11,31,04,025,26,17,14,226,,26,04,059,,1*58
$GPGSV,1,1,04,03,37,097,44,04,67,074,47,06,61,277,44,09,66,213,,8*6F
$GLGSV,3,1,10,66,36,059,44,77,10,125,24,76,28,074,43,83,49,300,31,1*7B
$GLGSV,3,2,10,81,07,184,24,67,73,320,41,68,27,262,30,82,46,219,,1*70
$GLGSV,3,3,10,75,17,021,,84,04,343,,1*72
$GAGSV,3,1,09,02,13,066,35,07,85,102,42,08,32,064,43,25,08,016,33,7*75
$GAGSV,3,2,09,26,54,210,25,33,45,298,43,12,02,327,,13,13,167,,7*78
$GAGSV,3,3,09,30,02,111,,7*4A
$GAGSV,3,1,09,02,13,066,36,07,85,102,48,08,32,064,39,25,08,016,29,1*7C
$GAGSV,3,2,09,33,45,298,43,12,02,327,,13,13,167,,26,54,210,,1*79
$GAGSV,3,3,09,30,02,111,,1*4C
$GQGSV,1,1,01,-190,04,035,23,1*42
$GQGSV,1,1,01,-190,04,035,25,8*4D
$GBGSV,3,1,11,33,78,063,45,30,09,330,26,28,30,217,25,27,37,284,43,1*73
$GBGSV,3,2,11,26,25,059,40,24,24,112,45,14,49,078,45,09,18,049,32,1*75
$GBGSV,3,3,11,07,02,063,24,05,11,119,37,25,00,000,,1*4F
$GBGSV,2,1,07,24,24,112,44,26,25,059,39,27,37,284,28,28,30,217,26,5*7D
$GBGSV,2,2,07,30,09,330,29,33,78,063,46,25,00,000,,5*4B
$GIGSV,1,1,03,02,09,123,33,06,26,144,34,09,21,113,39,1*42
$GNGSA,A,3,02,03,04,06,09,19,22,,,,,,0.9,0.6,0.6,1*3A
$GNGSA,A,3,66,67,68,76,77,83,,,,,,,0.9,0.6,0.6,2*3E
$GNGSA,A,3,02,07,08,25,33,,,,,,,,0.9,0.6,0.6,3*30
$GNGSA,A,3,09,14,24,26,27,28,30,33,,,,,0.9,0.6,0.6,4*3F
$GNVTG,,T,,M,0.0,N,0.0,K,A*3D
$GNRMC,100327.00,A,5200.057293,N,00422.754639,E,0.0,,191120,1.8,W,A,V*6A
$GNGGA,100327.00,5200.057293,N,00422.754639,E,1,12,0.6,-0.0,M,47.0,M,,*5D
$GPGSV,3,1,11,02,23,312,39,03,37,097,43,04,67,074,42,06,61,277,29,1*69
$GPGSV,3,2,11,07,10,171,23,09,66,213,24,19,23,240,34,22,16,104,43,1*67
$GPGSV,3,3,11,31,04,025,25,17,14,226,,26,04,059,,1*5B
$GPGSV,1,1,04,03,37,097,44,04,67,074,47,06,61,277,44,09,66,213,,8*6F
$GLGSV,3,1,10,66,36,059,42,77,10,125,24,76,28,074,41,83,49,300,31,1*7F
$GLGSV,3,2,10,81,07,184,24,67,73,320,40,68,27,262,31,82,46,219,,1*70
$GLGSV,3,3,10,75,17,021,,84,04,343,,1*72
