$GPGSV,3,1,10,02,28,309,32,03,30,101,38,04,60,067,27,06,63,260,39,1*64
$GPGSV,3,2,10,22,09,108,46,26,07,052,28,07,17,168,,09,74,212,,1*6D
$GPGSV,3,3,10,17,08,223,,19,17,234,,1*63
$GLGSV,3,1,10,68,34,270,35,66,29,066,,82,37,215,,77,18,120,,1*78
$GLGSV,3,2,10,76,30,064,,75,13,014,,84,11,340,,83,51,286,,1*75
$GLGSV,3,3,10,81,00,000,,67,73,355,,1*76
$GAGSV,3,1,09,02,16,060,43,07,80,073,25,08,26,066,27,30,07,108,38,7*7F
$GAGSV,3,2,09,33,47,291,35,12,07,327,,13,07,168,,25,07,012,,7*7F
$GAGSV,3,3,09,26,47,206,,7*49
$GBGSV,3,1,12,14,43,082,41,05,11,119,42,07,04,061,,09,16,050,,1*7F
$GBGSV,3,2,12,10,01,085,,24,29,106,,25,06,157,,26,24,053,,1*75
$GBGSV,3,3,12,27,36,275,,28,23,215,,30,14,327,,33,72,073,,1*79
$GNGSA,A,3,02,03,04,06,22,,,,,,,,1.0,0.8,0.7,1*3C
$GNGSA,A,3,66,67,68,76,77,83,,,,,,,1.0,0.8,0.7,2*39
$GNGSA,A,3,02,07,08,30,33,,,,,,,,1.0,0.8,0.7,3*33
$GNGSA,A,3,09,14,24,26,27,30,33,,,,,,1.0,0.8,0.7,4*32
$GNVTG,,T,,M,0.0,N,0.0,K,A*3D
$GNRMC,101931.65,A,5200.056782,N,00422.748675,E,0.0,,191120,1.8,W,A,V*64
$GNGGA,101931.65,5200.056782,N,00422.748675,E,1,12,0.8,-11.7,M,47.0,M,,*6A
$GPGSV,3,1,10,02,28,309,31,03,30,101,38,04,60,067,26,06,63,260,39,1*66
$GPGSV,3,2,10,07,17,168,23,09,74,212,23,22,09,108,46,26,07,052,29,1*6C
$GPGSV,3,3,10,17,08,223,,19,17,234,,1*63
$GLGSV,3,1,10,66,29,066,24,77,18,120,33,76,30,064,33,83,51,286,29,1*74
$GLGSV,3,2,10,67,73,355,40,68,34,270,37,82,37,215,,75,13,014,,1*7F
$GLGSV,3,3,10,84,11,340,,81,00,000,,1*7B
$GAGSV,3,1,09,02,16,060,43,07,80,073,24,08,26,066,28,30,07,108,37,7*7E
$GAGSV,3,2,09,33,47,291,36,12,07,327,,13,07,168,,25,07,012,,7*7C
$GAGSV,3,3,09,26,47,206,,7*49
$GQGSV,1,1,01,-190,04,033,25,1*42
$GBGSV,3,1,12,33,72,073,38,30,14,327,35,27,36,275,31,26,24,053,34,1*7A
$GBGSV,3,2,12,24,29,106,42,14,43,082,41,09,16,050,39,05,11,119,42,1*7E
$GBGSV,3,3,12,07,04,061,,10,01,085,,25,06,157,,28,23,215,,1*73
$GNGSA,A,3,02,03,04,06,07,09,22,,,,,,0.9,0.7,0.6,1*34
$GNGSA,A,3,66,67,68,76,77,83,,,,,,,0.9,0.7,0.6,2*3F
$GNGSA,A,3,02,07,08,30,33,,,,,,,,0.9,0.7,0.6,3*35
$GNGSA,A,3,09,14,24,26,27,30,33,,,,,,0.9,0.7,0.6,4*34
$GNVTG,,T,,M,0.0,N,0.0,K,A*3D
$GNRMC,101933.00,A,5200.056575,N,00422.748677,E,0.0,,191120,1.8,W,A,V*6D
$GNGGA,101933.00,5200.056575,N,00422.748677,E,1,12,0.7,-11.5,M,47.0,M,,*6E
$GPGSV,3,1,10,02,28,309,32,03,30,101,36,04,60,067,26,06,63,260,36,1*64
$GPGSV,3,2,10,07,17,168,23,09,74,212,23,22,09,108,45,26,07,052,28,1*6E
$GPGSV,3,3,10,17,08,223,,19,17,234,,1*63
$GLGSV,3,1,10,66,29,066,24,77,18,120,32,76,30,064,34,83,51,286,23,1*78
$GLGSV,3,2,10,67,73,355,39,68,34,270,36,82,37,215,,75,13,014,,1*70
$GLGSV,3,3,10,84,11,340,,81,00,000,,1*7B
$GAGSV,3,1,09,02,16,060,42,07,80,073,24,08,26,066,27,30,07,108,37,7*70
$GAGSV,3,2,09,33,47,291,32,12,07,327,,13,07,168,,25,07,012,,7*78
$GAGSV,3,3,09,26,47,206,,7*49
$GQGSV,1,1,01,-190,04,033,25,1*42
$GBGSV,3,1,12,33,72,073,37,30,14,327,38,27,36,275,32,26,24,053,33,1*7C
$GBGSV,3,2,12,24,29,106,39,14,43,082,40,09,16,050,38,05,11,119,43,1*73
$GBGSV,3,3,12,07,04,061,,10,01,085,,25,06,157,,28,23,215,,1*73
$GNGSA,A,3,02,03,04,06,07,09,22,,,,,,0.9,0.7,0.6,1*34
$GNGSA,A,3,66,67,68,76,77,83,,,,,,,0.9,0.7,0.6,2*3F
$GNGSA,A,3,02,07,08,30,33,,,,,,,,0.9,0.7,0.6,3*35
$GNGSA,A,3,09,14,24,26,27,30,33,,,,,,0.9,0.7,0.6,4*34
$GNVTG,,T,,M,0.0,N,0.0,K,A*3D
$GNRMC,101934.00,A,5200.056513,N,00422.748740,E,0.0,,191120,1.8,W,A,V*6F
$GNGGA,101934.00,5200.056513,N,00422.748740,E,1,12,0.7,-11.2,M,47.0,M,,*6B
$GPGSV,3,1,10,02,28,309,37,03,30,101,35,04,60,067,26,06,63,260,41,1*62
$GPGSV,3,2,10,07,17,168,23,09,74,212,23,22,09,108,41,26,07,052,23,1*61
$GPGSV,3,3,10,17,08,223,,19,17,234,,1*63
$GLGSV,3,1,10,66,29,066,24,77,18,120,29,76,30,064,36,83,51,286,24,1*77
$GLGSV,3,2,10,67,73,355,34,68,34,270,33,82,37,215,,75,13,014,,1*78
$GLGSV,3,3,10,84,11,340,,81,00,000,,1*7B
$GAGSV,3,1,09,02,16,060,35,07,80,073,24,08,26,066,34,30,07,108,35,7*70
$GAGSV,3,2,09,33,47,291,35,12,07,327,,13,07,168,,25,07,012,,7*7F
$GAGSV,3,3,09,26,47,206,,7*49
$GQGSV,1,1,01,-190,04,033,25,1*42
$GBGSV,3,1,12,33,72,073,35,30,14,327,35,27,36,275,32,26,24,053,35,1*75
$GBGSV,3,2,12,24,29,106,39,14,43,082,38,09,16,050,28,05,11,119,39,1*70
$GBGSV,3,3,12,07,04,061,,10,01,085,,25,06,157,,28,23,215,,1*73
$GNGSA,A,3,02,03,04,06,07,09,22,,,,,,0.9,0.7,0.6,1*34
$GNGSA,A,3,66,67,68,76,77,83,,,,,,,0.9,0.7,0.6,2*3F
$GNGSA,A,3,02,07,08,30,33,,,,,,,,0.9,0.7,0.6,3*35
$GNGSA,A,3,09,14,24,26,27,30,33,,,,,,0.9,0.7,0.6,4*34
$GNVTG,,T,,M,0.0,N,0.0,K,A*3D
$GNRMC,101935.00,A,5200.056455,N,00422.748807,E,0.0,,191120,1.8,W,A,V*61
$GNGGA,101935.00,5200.056455,N,00422.748807,E,1,12,0.7,-11.1,M,47.0,M,,*66
$GPGSV,3,1,10,02,28,309,39,03,30,101,43,04,60,067,26,06,63,260,45,1*69
$GPGSV,3,2,10,07,17,168,23,09,74,212,23,22,09,108,39,26,07,052,23,1*6E
$GPGSV,3,3,10,17,08,223,,19,17,234,,1*63
$GLGSV,3,1,10,66,29,066,24,77,18,120,32,76,30,064,35,83,51,286,30,1*7B
$GLGSV,3,2,10,67,73,355,41,68,34,270,42,82,37,215,,75,13,014,,1*7C
$GLGSV,3,3,10,84,11,340,,81,00,000,,1*7B
$GAGSV,3,1,09,02,16,060,37,07,80,073,24,08,26,066,34,30,07,108,35,7*72
$GAGSV,3,2,09,33,47,291,40,12,07,327,,13,07,168,,25,07,012,,7*7D
$GAGSV,3,3,09,26,47,206,,7*49
$GQGSV,1,1,01,-190,04,033,25,1*42
$GBGSV,3,1,12,33,72,073,42,30,14,327,34,27,36,275,42,26,24,053,37,1*71
$GBGSV,3,2,12,24,29,106,45,14,43,082,39,09,16,050,32,05,11,119,32,1*7A
$GBGSV,3,3,12,07,04,061,,10,01,085,,25,06,157,,28,23,215,,1*73
$GNGSA,A,3,02,03,04,06,07,09,22,,,,,,0.9,0.7,0.6,1*34
$GNGSA,A,3,66,67,68,76,77,83,,,,,,,0.9,0.7,0.6,2*3F
$GNGSA,A,3,02,07,08,30,33,,,,,,,,0.9,0.7,0.6,3*35
$GNGSA,A,3,09,14,24,26,27,30,33,,,,,,0.9,0.7,0.6,4*34
$GNVTG,,T,,M,0.0,N,0.0,K,A*3D
$GNRMC,101936.00,A,5200.056429,N,00422.748811,E,0.0,,191120,1.8,W,A,V*6E
$GNGGA,101936.00,5200.056429,N,00422.748811,E,1,12,0.7,-11.0,M,47.0,M,,*68
$GPGSV,3,1,10,02,28,309,37,03,30,101,37,04,60,067,37,06,63,260,48,1*69
$GPGSV,3,2,10,07,17,168,25,09,74,212,23,22,09,108,36,26,07,052,23,1*67
$GPGSV,3,3,10,17,08,223,,19,17,234,,1*63
$GPGSV,2,1,05,03,30,101,32,04,60,067,30,06,63,260,38,26,07,052,28,8*68
$GPGSV,2,2,05,09,74,212,,8*53
$GLGSV,3,1,10,66,29,066,31,77,18,120,27,76,30,064,35,83,51,286,29,1*73
$GLGSV,3,2,10,67,73,355,38,68,34,270,40,82,37,215,,75,13,014,,1*70
$GLGSV,3,3,10,84,11,340,,81,00,000,,1*7B
$GAGSV,3,1,09,02,16,060,32,07,80,073,41,08,26,066,35,25,07,012,25,7*7A
$GAGSV,3,2,09,30,07,108,29,33,47,291,39,12,07,327,,13,07,168,,7*76
$GAGSV,3,3,09,26,47,206,,7*49
$GAGSV,3,1,09,02,16,060,30,07,80,073,35,08,26,066,27,25,07,012,24,1*7F
$GAGSV,3,2,09,30,07,108,31,33,47,291,34,12,07,327,,13,07,168,,1*74
$GAGSV,3,3,09,26,47,206,,1*4F
$GQGSV,1,1,01,-190,04,033,,8*4C
$GBGSV,3,1,12,33,72,073,43,30,14,327,31,27,36,275,41,26,24,053,36,1*77
$GBGSV,3,2,12,25,06,157,27,24,29,106,39,14,43,082,38,09,16,050,32,1*7A
$GBGSV,3,3,12,05,11,119,33,07,04,061,,10,01,085,,28,23,215,,1*7D
$GBGSV,2,1,07,24,29,106,30,26,24,053,26,27,36,275,35,30,14,327,37,5*7D
$GBGSV,2,2,07,33,72,073,36,25,06,157,,28,23,215,,5*4E
$GIGSV,1,1,04,02,11,122,31,06,26,144,36,09,20,115,34,04,00,000,,1*73
$GNGSA,A,3,02,03,04,06,07,09,22,,,,,,0.8,0.6,0.6,1*34
$GNGSA,A,3,66,67,68,76,77,83,,,,,,,0.8,0.6,0.6,2*3F
$GNGSA,A,3,02,07,08,25,30,33,,,,,,,0.8,0.6,0.6,3*32
$GNGSA,A,3,09,14,24,25,26,27,30,33,,,,,0.8,0.6,0.6,4*33
$GNVTG,,T,,M,0.0,N,0.0,K,A*3D
$GNRMC,101937.00,A,5200.056462,N,00422.748855,E,0.0,,191120,1.8,W,A,V*60
$GNGGA,101937.00,5200.056462,N,00422.748855,E,1,12,0.6,-11.0,M,47.0,M,,*67
$GPGSV,3,1,10,02,28,309,34,03,30,101,37,04,60,067,26,06,63,260,40,1*62
$GPGSV,3,2,10,07,17,168,25,09,74,212,23,22,09,108,38,26,07,052,26,1*6C
$GPGSV,3,3,10,17,08,223,,19,17,234,,1*63
$GPGSV,2,1,05,03,30,101,28,04,60,067,38,06,63,260,28,26,07,052,28,8*6A
$GPGSV,2,2,05,09,74,212,,8*53
$GLGSV,3,1,10,66,29,066,27,77,18,120,27,76,30,064,28,83,51,286,25,1*74
$GLGSV,3,2,10,67,73,355,33,68,34,270,36,82,37,215,,75,13,014,,1*7A
$GLGSV,3,3,10,84,11,340,,81,00,000,,1*7B
$GAGSV,3,1,09,02,16,060,36,07,80,073,35,08,26,066,29,25,07,012,30,7*74
$GAGSV,3,2,09,30,07,108,28,33,47,291,34,12,07,327,,13,07,168,,7*7A
$GAGSV,3,3,09,26,47,206,,7*49
$GAGSV,3,1,09,02,16,060,30,07,80,073,38,08,26,066,29,25,07,012,28,1*70
$GAGSV,3,2,09,30,07,108,31,33,47,291,36,12,07,327,,13,07,168,,1*76
$GAGSV,3,3,09,26,47,206,,1*4F
$GQGSV,1,1,01,-190,04,033,,8*4C
$GBGSV,3,1,12,33,72,073,41,30,14,327,38,27,36,275,35,26,24,053,27,1*7F
$GBGSV,3,2,12,25,06,157,27,24,29,106,37,14,43,082,39,09,16,050,27,1*71
$GBGSV,3,3,12,05,11,119,36,07,04,061,,10,01,085,,28,23,215,,1*78
$GBGSV,2,1,07,24,29,106,31,25,06,157,27,26,24,053,31,27,36,275,29,5*74
$GBGSV,2,2,07,30,14,327,39,33,72,073,39,28,23,215,,5*49
$GIGSV,1,1,04,02,11,122,36,06,26,144,28,09,20,115,33,04,00,000,,1*7C
$GNGSA,A,3,02,03,04,06,07,09,22,,,,,,0.8,0.6,0.6,1*34
$GNGSA,A,3,66,67,68,76,77,83,,,,,,,0.8,0.6,0.6,2*3F
$GNGSA,A,3,02,07,08,25,30,33,,,,,,,0.8,0.6,0.6,3*32
$GNGSA,A,3,09,14,24,25,26,27,30,33,,,,,0.8,0.6,0.6,4*33
$GNVTG,,T,,M,0.0,N,0.0,K,A*3D
$GNRMC,101938.00,A,5200.056382,N,00422.748875,E,0.0,,191120,1.8,W,A,V*64
$GNGGA,101938.00,5200.056382,N,00422.748875,E,1,12,0.6,-10.6,M,47.0,M,,*64
$GPGSV,3,1,10,02,28,309,37,03,30,101,40,04,60,067,41,06,63,260,42,1*62
$GPGSV,3,2,10,07,17,168,25,09,74,212,24,22,09,108,41,26,07,052,25,1*66
$GPGSV,3,3,10,17,08,223,,19,17,234,,1*63
$GPGSV,2,1,05,03,30,101,39,04,60,067,36,06,63,260,32,26,07,052,28,8*6F
$GPGSV,2,2,05,09,74,212,,8*53
$GLGSV,3,1,10,66,29,066,38,77,18,120,31,76,30,064,40,83,51,286,25,1*73
$GLGSV,3,2,10,67,73,355,38,68,34,270,33,82,37,215,,75,13,014,,1*74
$GLGSV,3,3,10,84,11,340,,81,00,000,,1*7B
$GAGSV,3,1,09,02,16,060,32,07,80,073,37,08,26,066,38,25,07,012,30,7*72
$GAGSV,3,2,09,30,07,108,33,33,47,291,35,12,07,327,,13,07,168,,7*71
$GAGSV,3,3,09,26,47,206,,7*49
$GAGSV,3,1,09,02,16,060,33,07,80,073,37,08,26,066,36,25,07,012,24,1*7E
$GAGSV,3,2,09,30,07,108,31,33,47,291,37,12,07,327,,13,07,168,,1*77
$GAGSV,3,3,09,26,47,206,,1*4F
$GQGSV,1,1,01,-190,04,033,28,1*4F
$GQGSV,1,1,01,-190,04,033,,8*4C
$GBGSV,3,1,12,33,72,073,41,30,14,327,38,27,36,275,34,26,24,053,38,1*70
$GBGSV,3,2,12,25,06,157,25,24,29,106,44,14,43,082,42,09,16,050,33,1*7E
$GBGSV,3,3,12,07,04,061,26,05,11,119,38,10,01,085,,28,23,215,,1*72
$GBGSV,2,1,07,24,29,106,40,25,06,157,27,26,24,053,28,27,36,275,36,5*74
$GBGSV,2,2,07,30,14,327,26,33,72,073,37,28,23,215,,5*49
$GIGSV,1,1,04,02,11,122,40,06,26,144,32,09,20,115,36,04,00,000,,1*73
$GNGSA,A,3,02,03,04,06,07,22,,,,,,,0.8,0.6,0.6,1*3D
$GNGSA,A,3,66,67,68,76,77,83,,,,,,,0.8,0.6,0.6,2*3F
$GNGSA,A,3,02,07,08,25,30,33,,,,,,,0.8,0.6,0.6,3*32
$GNGSA,A,3,07,09,14,24,25,26,27,30,33,,,,0.8,0.6,0.6,4*34
$GNVTG,,T,,M,0.0,N,0.0,K,A*3D
$GNRMC,101939.00,A,5200.056240,N,00422.748912,E,0.0,,191120,1.8,W,A,V*6A
$GNGGA,101939.00,5200.056240,N,00422.748912,E,1,12,0.6,-10.3,M,47.0,M,,*6F
$GPGSV,3,1,10,02,28,309,38,03,30,101,35,04,60,067,34,06,63,260,29,1*60
$GPGSV,3,2,10,07,17,168,25,09,74,212,24,22,09,108,43,26,07,052,31,1*61
$GPGSV,3,3,10,17,08,223,,19,17,234,,1*63
$GPGSV,2,1,05,03,30,101,35,04,60,067,35,06,63,260,34,26,07,052,28,8*66
$GPGSV,2,2,05,09,74,212,,8*53
$GLGSV,3,1,10,66,29,066,33,77,18,120,31,76,30,064,34,83,51,286,24,1*7A
$GLGSV,3,2,10,67,73,355,33,68,34,270,38,82,37,215,,75,13,014,,1*74
$GLGSV,3,3,10,84,11,340,,81,00,000,,1*7B
$GAGSV,3,1,09,02,16,060,40,07,80,073,35,08,26,066,29,25,07,012,30,7*75
$GAGSV,3,2,09,30,07,108,36,33,47,291,40,12,07,327,,13,07,168,,7*76
$GAGSV,3,3,09,26,47,206,,7*49
$GAGSV,3,1,09,02,16,060,32,07,80,073,37,08,26,066,34,25,07,012,24,1*7D
$GAGSV,3,2,09,30,07,108,33,33,47,291,38,12,07,327,,13,07,168,,1*7A
$GAGSV,3,3,09,26,47,206,,1*4F
$GQGSV,1,1,01,-190,04,033,25,1*42
$GQGSV,1,1,01,-190,04,033,,8*4C
$GBGSV,3,1,12,33,72,073,26,30,14,327,34,27,36,275,34,26,24,053,32,1*77
$GBGSV,3,2,12,25,06,157,25,24,29,106,30,14,43,082,40,09,16,050,39,1*75
$GBGSV,3,3,12,07,04,061,26,05,11,119,41,10,01,085,,28,23,215,,1*7C
$GBGSV,2,1,07,24,29,106,41,25,06,157,27,26,24,053,34,27,36,275,31,5*7F
$GBGSV,2,2,07,30,14,327,30,33,72,073,34,28,23,215,,5*4D
$GIGSV,1,1,04,02,11,122,34,06,26,144,35,09,20,115,33,04,00,000,,1*72
$GNGSA,A,3,02,03,04,06,07,22,,,,,,,0.8,0.6,0.6,1*3D
$GNGSA,A,3,66,67,68,76,77,83,,,,,,,0.8,0.6,0.6,2*3F
$GNGSA,A,3,02,07,08,25,30,33,,,,,,,0.8,0.6,0.6,3*32
$GNGSA,A,3,07,09,14,24,25,26,27,30,33,,,,0.8,0.6,0.6,4*34
$GNVTG,,T,,M,0.0,N,0.0,K,A*3D
$GNRMC,101940.00,A,5200.056192,N,00422.748927,E,0.0,,191120,1.8,W,A,V*6E
$GNGGA,101940.00,5200.056192,N,00422.748927,E,1,12,0.6,-10.3,M,47.0,M,,*6B
$GPGSV,3,1,10,02,28,309,38,03,30,101,36,04,60,067,37,06,63,260,33,1*6B
$GPGSV,3,2,10,07,17,168,25,09,74,212,24,22,09,108,44,26,07,052,34,1*63
$GPGSV,3,3,10,17,08,223,,19,17,234,,1*63
$GPGSV,2,1,05,03,30,101,35,04,60,067,42,06,63,260,42,26,07,052,28,8*67
$GPGSV,2,2,05,09,74,212,,8*53
$GLGSV,3,1,10,66,29,066,37,77,18,120,34,76,30,064,37,83,51,286,28,1*74
$GLGSV,3,2,10,67,73,355,35,68,34,270,37,82,37,215,,75,13,014,,1*7D
$GLGSV,3,3,10,84,11,340,,81,00,000,,1*7B
$GAGSV,3,1,09,02,16,060,39,07,80,073,33,08,26,066,26,25,07,012,30,7*72
$GAGSV,3,2,09,30,07,108,35,33,47,291,41,12,07,327,,13,07,168,,7*74
$GAGSV,3,3,09,26,47,206,,7*49
$GAGSV,3,1,09,02,16,060,35,07,80,073,42,08,26,066,40,25,07,012,24,1*7B
$GAGSV,3,2,09,30,07,108,31,33,47,291,41,12,07,327,,13,07,168,,1*76
$GAGSV,3,3,09,26,47,206,,1*4F
$GQGSV,1,1,01,-190,04,033,25,1*42
$GQGSV,1,1,01,-190,04,033,,8*4C
$GBGSV,3,1,12,33,72,073,27,30,14,327,34,27,36,275,31,26,24,053,37,1*76
$GBGSV,3,2,12,25,06,157,25,24,29,106,29,14,43,082,41,09,16,050,40,1*72
$GBGSV,3,3,12,07,04,061,24,05,11,119,42,10,01,085,,28,23,215,,1*7D
$GBGSV,2,1,07,24,29,106,41,25,06,157,27,26,24,053,39,27,36,275,35,5*76
$GBGSV,2,2,07,30,14,327,30,33,72,073,42,28,23,215,,5*4C
$GIGSV,1,1,04,02,11,122,31,06,26,144,34,09,20,115,35,04,00,000,,1*70
$GNGSA,A,3,02,03,04,06,07,22,,,,,,,0.8,0.6,0.6,1*3D
$GNGSA,A,3,66,67,68,76,77,83,,,,,,,0.8,0.6,0.6,2*3F
$GNGSA,A,3,02,07,08,25,30,33,,,,,,,0.8,0.6,0.6,3*32
$GNGSA,A,3,07,09,14,24,25,26,27,30,33,,,,0.8,0.6,0.6,4*34
$GNVTG,,T,,M,0.0,N,0.0,K,A*3D
$GNRMC,101941.00,A,5200.056130,N,00422.748916,E,0.0,,191120,1.8,W,A,V*65
$GNGGA,101941.00,5200.056130,N,00422.748916,E,1,12,0.6,-10.3,M,47.0,M,,*60
$GPGSV,3,1,10,02,28,309,32,03,30,101,28,04,60,067,35,06,63,260,38,1*67
$GPGSV,3,2,10,07,17,168,25,09,74,212,24,22,09,108,42,26,07,052,28,1*68
$GPGSV,3,3,10,17,08,223,,19,17,234,,1*63
$GPGSV,2,1,05,03,30,101,36,04,60,067,43,06,63,260,40,26,07,052,28,8*67
$GPGSV,2,2,05,09,74,212,,8*53
$GLGSV,3,1,10,66,29,066,35,82,37,215,23,77,18,120,35,76,30,064,38,1*78
$GLGSV,3,2,10,83,51,286,27,67,73,355,39,68,34,270,38,75,13,014,,1*70
$GLGSV,3,3,10,84,11,340,,81,00,000,,1*7B
$GAGSV,3,1,09,02,16,060,38,07,80,073,32,08,26,066,29,25,07,012,30,7*7D
$GAGSV,3,2,09,30,07,108,34,33,47,291,39,12,07,327,,13,07,168,,7*7A
$GAGSV,3,3,09,26,47,206,,7*49
$GAGSV,3,1,09,02,16,060,33,07,80,073,42,08,26,066,38,25,07,012,24,1*72
$GAGSV,3,2,09,30,07,108,33,33,47,291,40,12,07,327,,13,07,168,,1*75
$GAGSV,3,3,09,26,47,206,,1*4F
$GQGSV,1,1,01,-190,04,033,23,1*44
$GQGSV,1,1,01,-190,04,033,,8*4C
$GBGSV,3,1,12,33,72,073,26,30,14,327,36,27,36,275,40,26,24,053,32,1*76
$GBGSV,3,2,12,25,06,157,25,24,29,106,32,14,43,082,43,09,16,050,37,1*7A
$GBGSV,3,3,12,07,04,061,25,05,11,119,42,10,01,085,,28,23,215,,1*7C
$GBGSV,2,1,07,24,29,106,41,25,06,157,27,26,24,053,38,27,36,275,36,5*74
$GBGSV,2,2,07,30,14,327,30,33,72,073,41,28,23,215,,5*4F
$GIGSV,1,1,04,02,11,122,29,06,26,144,34,09,20,115,34,04,00,000,,1*78
$GNGSA,A,3,02,03,04,06,07,22,,,,,,,0.8,0.6,0.6,1*3D
$GNGSA,A,3,66,67,68,76,77,83,,,,,,,0.8,0.6,0.6,2*3F
$GNGSA,A,3,02,07,08,25,30,33,,,,,,,0.8,0.6,0.6,3*32
$GNGSA,A,3,07,09,14,24,25,26,27,30,33,,,,0.8,0.6,0.6,4*34
$GNVTG,,T,,M,0.0,N,0.0,K,A*3D
$GNRMC,101942.00,A,5200.056110,N,00422.748918,E,0.0,,191120,1.8,W,A,V*6A
$GNGGA,101942.00,5200.056110,N,00422.748918,E,1,12,0.6,-10.2,M,47.0,M,,*6E
$GPGSV,3,1,10,02,28,309,35,03,30,101,27,04,60,067,30,06,63,260,34,1*66
$GPGSV,3,2,10,07,17,168,25,09,74,212,24,22,09,108,40,26,07,052,27,1*65
$GPGSV,3,3,10,17,08,223,,19,17,234,,1*63
$GPGSV,2,1,05,03,30,101,30,04,60,067,42,06,63,260,41,26,07,052,28,8*61
$GPGSV,2,2,05,09,74,212,,8*53
$GLGSV,3,1,10,66,29,066,38,82,37,215,23,77,18,120,33,76,30,064,39,1*72
$GLGSV,3,2,10,83,51,286,31,67,73,355,35,68,34,270,36,75,13,014,,1*75
$GLGSV,3,3,10,84,11,340,,81,00,000,,1*7B
$GAGSV,3,1,09,02,16,060,32,07,80,073,31,08,26,066,29,25,07,012,30,7*74
$GAGSV,3,2,09,30,07,108,35,33,47,291,39,12,07,327,,13,07,168,,7*7B
$GAGSV,3,3,09,26,47,206,,7*49
$GAGSV,3,1,09,02,16,060,35,07,80,073,44,08,26,066,37,25,07,012,25,1*7C
$GAGSV,3,2,09,30,07,108,29,33,47,291,41,12,07,327,,13,07,168,,1*7F
$GAGSV,3,3,09,26,47,206,,1*4F
$GQGSV,1,1,01,-190,04,033,23,1*44
$GQGSV,1,1,01,-190,04,033,,8*4C
$GBGSV,3,1,12,33,72,073,32,30,14,327,35,27,36,275,43,26,24,053,35,1*74
$GBGSV,3,2,12,25,06,157,25,24,29,106,30,14,43,082,43,09,16,050,35,1*7A
$GBGSV,3,3,12,07,04,061,25,05,11,119,39,10,01,085,,28,23,215,,1*70
$GBGSV,2,1,07,24,29,106,37,25,06,157,27,26,24,053,39,27,36,275,38,5*7A
$GBGSV,2,2,07,30,14,327,30,33,72,073,42,28,23,215,,5*4C
$GIGSV,1,1,04,02,11,122,36,06,26,144,31,09,20,115,35,04,00,000,,1*72
$GNGSA,A,3,02,03,04,06,22,,,,,,,,0.9,0.6,0.6,1*3B
$GNGSA,A,3,66,67,68,76,77,83,,,,,,,0.9,0.6,0.6,2*3E
$GNGSA,A,3,02,07,08,25,30,33,,,,,,,0.9,0.6,0.6,3*33
$GNGSA,A,3,07,09,14,24,25,26,27,30,33,,,,0.9,0.6,0.6,4*35
$GNVTG,,T,,M,0.0,N,0.0,K,A*3D
$GNRMC,101943.00,A,5200.056062,N,00422.748922,E,0.0,,191120,1.8,W,A,V*66
$GPGSV,3,1,10,02,28,309,38,03,30,101,33,04,60,067,29,06,63,260,35,1*67
$GPGSV,3,2,10,07,17,168,25,09,74,212,24,19,17,234,24,22,09,108,42,1*6B
$GPGSV,3,3,10,26,07,052,28,17,08,223,,1*66
$GPGSV,2,1,05,03,30,101,34,04,60,067,41,06,63,260,42,26,07,052,28,8*65
$GPGSV,2,2,05,09,74,212,,8*53
$GLGSV,3,1,10,66,29,066,37,82,37,215,23,77,18,120,33,76,30,064,39,1*7D
$GLGSV,3,2,10,83,51,286,30,67,73,355,35,68,34,270,36,75,13,014,,1*74
$GLGSV,3,3,10,84,11,340,,81,00,000,,1*7B
$GAGSV,3,1,09,02,16,060,37,07,80,074,31,08,26,066,28,25,07,012,30,7*77
$GAGSV,3,2,09,30,07,108,35,33,47,291,41,12,07,327,,13,07,168,,7*74
$GAGSV,3,3,09,26,47,206,,7*49
$GAGSV,3,1,09,02,16,060,33,07,80,074,42,08,26,066,37,25,07,012,25,1*7B
$GAGSV,3,2,09,30,07,108,30,33,47,291,40,12,07,327,,13,07,168,,1*76
$GAGSV,3,3,09,26,47,206,,1*4F
$GQGSV,1,1,01,-190,04,033,23,1*44
$GQGSV,1,1,01,-190,04,033,,8*4C
$GBGSV,3,1,12,33,72,073,33,30,14,327,38,27,36,275,40,26,24,053,30,1*7E
$GBGSV,3,2,12,25,06,157,25,24,29,106,32,14,43,082,39,09,16,050,35,1*75
$GBGSV,3,3,12,07,04,061,25,05,11,119,40,10,01,085,,28,23,215,,1*7E
$GBGSV,2,1,07,24,29,106,39,25,06,157,27,26,24,053,37,27,36,275,37,5*75
$GBGSV,2,2,07,30,14,327,25,33,72,073,41,28,23,215,,5*4B
$GIGSV,1,1,04,02,11,122,34,06,26,144,34,09,20,115,32,04,00,000,,1*72
$GNGSA,A,3,02,03,04,06,22,,,,,,,,0.9,0.6,0.6,1*3B
$GNGSA,A,3,66,67,68,76,77,83,,,,,,,0.9,0.6,0.6,2*3E
$GNGSA,A,3,02,07,08,25,30,33,,,,,,,0.9,0.6,0.6,3*33
$GNGSA,A,3,07,09,14,24,25,26,27,30,33,,,,0.9,0.6,0.6,4*35
$GNVTG,,T,,M,0.0,N,0.0,K,A*3D
$GNRMC,101944.00,A,5200.056060,N,00422.748935,E,0.0,,191120,1.8,W,A,V*65
$GNGGA,101944.00,5200.056060,N,00422.748935,E,1,12,0.6,-10.2,M,47.0,M,,*61
$GPGSV,3,1,10,02,28,309,44,03,30,101,30,04,60,067,27,06,63,260,26,1*63
$GPGSV,3,2,10,07,17,168,25,09,74,212,24,19,17,234,24,22,09,108,42,1*6B
$GPGSV,3,3,10,26,07,052,26,17,08,223,,1*68
$GPGSV,2,1,05,03,30,101,36,04,60,067,43,06,63,260,40,26,07,052,28,8*67
$GPGSV,2,2,05,09,74,212,,8*53
$GLGSV,3,1,10,66,29,066,37,82,37,215,23,77,18,120,32,76,30,064,38,1*7D
$GLGSV,3,2,10,83,51,286,31,67,73,355,36,68,34,270,38,75,13,014,,1*78
$GLGSV,3,3,10,84,11,340,,81,00,000,,1*7B
$GAGSV,3,1,09,02,16,060,35,07,80,074,35,08,26,066,27,25,07,012,30,7*7E
$GAGSV,3,2,09,30,07,108,34,33,47,291,43,12,07,327,,13,07,168,,7*77
$GAGSV,3,3,09,26,47,206,,7*49
$GAGSV,3,1,09,02,16,060,38,07,80,074,45,08,26,066,36,25,07,012,25,1*76
$GAGSV,3,2,09,30,07,108,33,33,47,291,42,12,07,327,,13,07,168,,1*77
$GAGSV,3,3,09,26,47,206,,1*4F
$GQGSV,1,1,01,-190,04,033,23,1*44
$GQGSV,1,1,01,-190,04,033,,8*4C
$GBGSV,3,1,12,33,72,073,34,30,14,327,43,27,36,275,41,26,24,053,32,1*76
$GBGSV,3,2,12,25,06,157,25,24,29,106,33,14,43,082,37,09,16,050,38,1*77
$GBGSV,3,3,12,07,04,061,25,05,11,119,40,10,01,085,,28,23,215,,1*7E
$GBGSV,2,1,07,24,29,106,40,25,06,157,27,26,24,053,38,27,36,275,38,5*7B
$GBGSV,2,2,07,30,14,327,35,33,72,073,44,28,23,215,,5*4F
$GIGSV,1,1,04,02,11,122,30,06,26,144,33,09,20,115,33,04,00,000,,1*70
$GNGSA,A,3,02,03,04,06,22,,,,,,,,1.0,0.7,0.6,1*32
$GNGSA,A,3,66,67,68,76,77,83,,,,,,,1.0,0.7,0.6,2*37
$GNGSA,A,3,02,07,08,25,30,33,,,,,,,1.0,0.7,0.6,3*3A
$GNGSA,A,3,07,09,14,24,26,27,30,33,,,,,1.0,0.7,0.6,4*3B
$GNVTG,,T,,M,0.0,N,0.0,K,A*3D
$GNRMC,101945.00,A,5200.056023,N,00422.748954,E,0.0,,191120,1.8,W,A,V*64
$GNGGA,101945.00,5200.056023,N,00422.748954,E,1,12,0.7,-10.1,M,47.0,M,,*62
$GPGSV,3,1,10,02,28,309,41,03,30,101,27,04,60,067,29,06,63,260,26,1*6E
$GPGSV,3,2,10,07,17,168,25,09,74,212,24,19,17,234,23,22,09,108,39,1*60
$GPGSV,3,3,10,26,07,052,27,17,08,223,,1*69
$GPGSV,2,1,05,03,30,101,27,04,60,067,38,06,63,260,41,26,07,052,28,8*6A
$GPGSV,2,2,05,09,74,212,,8*53
$GLGSV,3,1,10,66,29,066,34,82,37,215,23,77,18,120,29,76,30,064,36,1*7A
$GLGSV,3,2,10,83,51,286,23,67,73,355,35,68,34,270,39,75,13,014,,1*79
$GLGSV,3,3,10,84,11,340,,81,00,000,,1*7B
$GAGSV,3,1,09,02,16,060,37,07,80,074,33,08,26,066,27,25,07,012,28,7*73
$GAGSV,3,2,09,30,07,108,31,33,47,291,41,12,07,327,,13,07,168,,7*70
$GAGSV,3,3,09,26,47,206,,7*49
$GAGSV,3,1,09,02,16,060,32,07,80,074,43,08,26,066,36,25,07,012,29,1*76
$GAGSV,3,2,09,30,07,108,32,33,47,291,41,12,07,327,,13,07,168,,1*75
$GAGSV,3,3,09,26,47,206,,1*4F
$GQGSV,1,1,01,-190,04,033,23,1*44
$GQGSV,1,1,01,-190,04,033,,8*4C
$GBGSV,3,1,12,33,72,073,33,30,14,327,43,27,36,275,42,26,24,053,38,1*78
$GBGSV,3,2,12,25,06,157,25,24,29,106,30,14,43,082,31,09,16,050,41,1*7C
$GBGSV,3,3,12,07,04,061,25,05,11,119,36,10,01,085,,28,23,215,,1*7F
$GBGSV,2,1,07,24,29,106,39,25,06,157,25,26,24,053,36,27,36,275,38,5*79
$GBGSV,2,2,07,30,14,327,36,33,72,073,40,28,23,215,,5*48
$GIGSV,1,1,04,02,11,122,29,06,26,144,34,09,20,115,34,04,00,000,,1*78
$GNGSA,A,3,02,03,04,06,22,,,,,,,,1.0,0.7,0.6,1*32
$GNGSA,A,3,66,67,68,76,77,83,,,,,,,1.0,0.7,0.6,2*37
$GNGSA,A,3,02,07,08,25,30,33,,,,,,,1.0,0.7,0.6,3*3A
$GNGSA,A,3,07,09,14,24,26,27,30,33,,,,,1.0,0.7,0.6,4*3B
$GNVTG,,T,,M,0.0,N,0.0,K,A*3D
$GNRMC,101946.00,A,5200.055942,N,00422.748975,E,0.0,,191120,1.8,W,A,V*69
$GNGGA,101946.00,5200.055942,N,00422.748975,E,1,12,0.7,-9.9,M,47.0,M,,*5F
$GPGSV,3,1,10,02,28,309,43,03,30,101,33,04,60,067,33,06,63,260,25,1*61
$GPGSV,3,2,10,07,17,168,25,09,74,212,24,19,17,234,24,22,09,108,42,1*6B
$GPGSV,3,3,10,26,07,052,26,17,08,223,,1*68
$GPGSV,2,1,05,03,30,101,33,04,60,067,45,06,63,260,41,26,07,052,28,8*65
$GPGSV,2,2,05,09,74,212,,8*53
$GLGSV,3,1,10,66,29,066,35,82,37,215,23,77,18,120,34,76,30,064,37,1*76
$GLGSV,3,2,10,83,51,286,29,67,73,355,36,68,34,270,38,75,13,014,,1*71
$GLGSV,3,3,10,84,11,340,,81,00,000,,1*7B
$GAGSV,3,1,09,02,16,060,36,07,80,074,33,08,26,066,28,13,07,168,24,7*78
$GAGSV,3,2,09,25,07,012,27,30,07,108,33,33,47,291,42,12,07,327,,7*7D
$GAGSV,3,3,09,26,47,206,,7*49
$GAGSV,3,1,09,02,16,060,38,07,80,074,45,08,26,066,37,25,07,012,25,1*77
$GAGSV,3,2,09,30,07,108,31,33,47,291,42,12,07,327,,13,07,168,,1*75
$GAGSV,3,3,09,26,47,206,,1*4F
$GQGSV,1,1,01,-190,04,033,23,1*44
$GQGSV,1,1,01,-190,04,033,,8*4C
$GBGSV,3,1,12,33,72,073,31,30,14,327,43,27,36,275,39,26,24,053,39,1*77
$GBGSV,3,2,12,25,06,157,25,24,29,106,36,14,43,082,40,09,16,050,40,1*7D
$GBGSV,3,3,12,07,04,061,25,05,11,119,41,10,01,085,,28,23,215,,1*7F
$GBGSV,2,1,07,24,29,106,39,25,06,157,25,26,24,053,39,27,36,275,39,5*77
$GBGSV,2,2,07,30,14,327,34,33,72,073,45,28,23,215,,5*4F
$GIGSV,1,1,04,02,11,122,32,06,26,144,31,09,20,115,32,04,00,000,,1*71
$GNGSA,A,3,02,03,04,06,22,,,,,,,,0.9,0.6,0.6,1*3B
$GNGSA,A,3,66,67,68,76,77,83,,,,,,,0.9,0.6,0.6,2*3E
$GNGSA,A,3,02,07,08,13,25,30,33,,,,,,0.9,0.6,0.6,3*31
$GNGSA,A,3,07,09,14,24,26,27,30,33,,,,,0.9,0.6,0.6,4*32
$GNVTG,,T,,M,0.0,N,0.0,K,A*3D
$GNRMC,101947.00,A,5200.055967,N,00422.748993,E,0.0,,191120,1.8,W,A,V*67
$GNGGA,101947.00,5200.055967,N,00422.748993,E,1,12,0.6,-9.8,M,47.0,M,,*51
$GPGSV,3,1,10,02,28,309,44,03,30,101,33,04,60,067,24,06,63,260,28,1*6D
$GPGSV,3,2,10,07,17,168,25,09,74,212,24,19,17,234,24,22,09,108,41,1*68
$GPGSV,3,3,10,26,07,052,25,17,08,223,,1*6B
$GPGSV,2,1,05,03,30,101,35,04,60,067,44,06,63,260,41,26,07,052,28,8*62
$GPGSV,2,2,05,09,74,212,,8*53
$GLGSV,3,1,10,66,29,066,37,82,37,215,23,77,18,120,33,76,30,064,38,1*7C
$GLGSV,3,2,10,83,51,286,28,67,73,355,34,68,34,270,37,75,13,014,,1*7D
$GLGSV,3,3,10,84,11,340,,81,00,000,,1*7B
$GAGSV,3,1,09,02,16,060,34,07,80,074,35,08,26,066,28,13,07,168,24,7*7C
$GAGSV,3,2,09,25,07,012,28,30,07,108,32,33,47,291,42,12,07,327,,7*73
$GAGSV,3,3,09,26,47,206,,7*49
$GAGSV,3,1,09,02,16,060,37,07,80,074,45,08,26,066,39,25,07,012,26,1*75
$GAGSV,3,2,09,30,07,108,29,33,47,291,42,12,07,327,,13,07,168,,1*7C
$GAGSV,3,3,09,26,47,206,,1*4F
$GQGSV,1,1,01,-190,04,033,23,1*44
$GQGSV,1,1,01,-190,04,033,,8*4C
$GBGSV,3,1,12,33,72,073,33,30,14,327,44,27,36,275,39,26,24,053,35,1*7E
$GBGSV,3,2,12,25,06,157,25,24,29,106,31,14,43,082,38,09,16,050,40,1*75
$GBGSV,3,3,12,07,04,061,25,05,11,119,39,10,01,085,,28,23,215,,1*70
$GBGSV,2,1,07,24,29,106,41,25,06,157,25,26,24,053,39,27,36,275,38,5*79
$GBGSV,2,2,07,30,14,327,35,33,72,073,44,28,23,215,,5*4F
$GIGSV,1,1,04,02,11,122,31,06,26,144,34,09,20,115,36,04,00,000,,1*73
$GNGSA,A,3,02,03,04,06,22,,,,,,,,0.9,0.6,0.6,1*3B
$GNGSA,A,3,66,67,68,76,77,83,,,,,,,0.9,0.6,0.6,2*3E
$GNGSA,A,3,02,07,08,13,25,30,33,,,,,,0.9,0.6,0.6,3*31
$GNGSA,A,3,09,14,24,26,27,30,33,,,,,,0.9,0.6,0.6,4*35
$GNVTG,,T,,M,0.0,N,0.0,K,A*3D
$GNRMC,101948.00,A,5200.055939,N,00422.749004,E,0.0,,191120,1.8,W,A,V*65
$GNGGA,101948.00,5200.055939,N,00422.749004,E,1,12,0.6,-9.8,M,47.0,M,,*53
$GPGSV,3,1,10,02,28,309,44,03,30,101,34,04,60,067,26,06,63,260,28,1*68
$GPGSV,3,2,10,07,17,168,25,09,74,212,24,19,17,234,24,22,09,108,43,1*6A
$GPGSV,3,3,10,26,07,052,28,17,08,223,,1*66
$GPGSV,2,1,05,03,30,101,34,04,60,067,44,06,63,260,40,26,07,052,28,8*62
$GPGSV,2,2,05,09,74,212,,8*53
$GLGSV,3,1,10,66,29,066,39,82,37,215,24,77,18,120,30,76,30,064,39,1*77
$GLGSV,3,2,10,83,51,286,29,67,73,355,35,68,34,270,38,75,13,014,,1*72
$GLGSV,3,3,10,84,11,340,,81,00,000,,1*7B
$GAGSV,3,1,09,02,16,060,34,07,80,074,35,08,26,066,28,13,07,168,24,7*7C
$GAGSV,3,2,09,25,07,012,28,30,07,108,35,33,47,291,42,12,07,327,,7*74
$GAGSV,3,3,09,26,47,206,,7*49
$GAGSV,3,1,09,02,16,060,37,07,80,074,45,08,26,066,38,25,07,012,26,1*74
$GAGSV,3,2,09,30,07,108,33,33,47,291,42,12,07,327,,13,07,168,,1*77
$GAGSV,3,3,09,26,47,206,,1*4F
$GQGSV,1,1,01,-190,04,033,23,1*44
$GQGSV,1,1,01,-190,04,033,,8*4C
$GBGSV,3,1,12,33,72,073,30,30,14,327,44,27,36,275,39,26,24,053,35,1*7D
$GBGSV,3,2,12,25,06,157,25,24,29,106,32,14,43,082,37,09,16,050,39,1*77
$GBGSV,3,3,12,07,04,061,25,05,11,119,37,10,01,085,,28,23,215,,1*7E
$GBGSV,2,1,07,24,29,106,41,25,06,157,25,26,24,053,39,27,36,275,38,5*79
$GBGSV,2,2,07,30,14,327,35,33,72,073,45,28,23,215,,5*4E
$GIGSV,1,1,04,02,11,122,30,06,26,144,31,09,20,115,34,04,00,000,,1*75
$GNGSA,A,3,02,03,04,06,22,,,,,,,,0.9,0.6,0.6,1*3B
$GNGSA,A,3,66,67,68,76,77,83,,,,,,,0.9,0.6,0.6,2*3E
$GNGSA,A,3,02,07,08,13,25,30,33,,,,,,0.9,0.6,0.6,3*31
$GNGSA,A,3,09,14,24,26,27,30,33,,,,,,0.9,0.6,0.6,4*35
$GNVTG,,T,,M,0.0,N,0.0,K,A*3D
$GNRMC,101949.00,A,5200.055925,N,00422.749008,E,0.0,,191120,1.8,W,A,V*65
$GNGGA,101949.00,5200.055925,N,00422.749008,E,1,12,0.6,-9.8,M,47.0,M,,*53
$GPGSV,3,1,10,02,28,309,44,03,30,101,32,04,60,067,26,06,63,260,29,1*6F
$GPGSV,3,2,10,07,17,168,25,09,74,212,24,19,17,234,24,22,09,108,35,1*6B
$GPGSV,3,3,10,26,07,052,29,17,08,223,,1*67
$GPGSV,2,1,05,03,30,101,33,04,60,067,44,06,63,260,40,26,07,052,28,8*65
$GPGSV,2,2,05,09,74,212,,8*53
$GLGSV,3,1,10,66,29,066,38,82,37,215,24,77,18,120,29,76,30,064,39,1*7E
$GLGSV,3,2,10,83,51,286,28,67,73,355,35,68,34,270,36,75,13,014,,1*7D
$GLGSV,3,3,10,84,11,340,,81,00,000,,1*7B
$GAGSV,3,1,09,02,16,060,36,07,80,074,36,08,26,066,28,13,07,168,24,7*7D
$GAGSV,3,2,09,25,07,012,25,30,07,108,27,33,47,291,42,12,07,327,,7*7A
$GAGSV,3,3,09,26,47,206,,7*49
$GAGSV,3,1,09,02,16,060,36,07,80,074,45,08,26,066,38,25,07,012,25,1*76
$GAGSV,3,2,09,30,07,108,28,33,47,291,42,12,07,327,,13,07,168,,1*7D
$GAGSV,3,3,09,26,47,206,,1*4F
$GQGSV,1,1,01,-190,04,033,23,1*44
$GQGSV,1,1,01,-190,04,033,,8*4C
$GBGSV,3,1,12,33,72,073,32,30,14,327,44,27,36,275,39,26,24,053,35,1*7F
$GBGSV,3,2,12,25,06,157,25,24,29,106,32,14,43,082,37,09,16,050,39,1*77
$GBGSV,3,3,12,07,04,061,25,05,11,119,36,10,01,085,,28,23,215,,1*7F
$GBGSV,2,1,07,24,29,106,40,25,06,157,25,26,24,053,39,27,36,275,38,5*78
$GBGSV,2,2,07,30,14,327,35,33,72,073,45,28,23,215,,5*4E
$GIGSV,1,1,04,02,11,122,28,06,26,144,32,09,20,115,29,04,00,000,,1*73
$GNGSA,A,3,02,03,04,06,22,,,,,,,,0.9,0.6,0.6,1*3B
$GNGSA,A,3,66,67,68,76,77,83,,,,,,,0.9,0.6,0.6,2*3E
$GNGSA,A,3,02,07,08,13,25,30,33,,,,,,0.9,0.6,0.6,3*31
$GNGSA,A,3,09,14,24,26,27,30,33,,,,,,0.9,0.6,0.6,4*35
$GNVTG,,T,,M,0.0,N,0.0,K,A*3D
$GNRMC,101950.00,A,5200.055913,N,00422.749011,E,0.0,,191120,1.8,W,A,V*60
$GNGGA,101950.00,5200.055913,N,00422.749011,E,1,12,0.6,-9.7,M,47.0,M,,*59
$GPGSV,3,1,10,02,28,309,43,03,30,101,33,04,60,067,27,06,63,260,23,1*62
$GPGSV,3,2,10,07,17,168,23,09,74,212,25,19,17,234,24,22,09,108,42,1*6C
$GPGSV,3,3,10,26,07,052,29,17,08,223,,1*67
$GPGSV,2,1,05,03,30,101,31,04,60,067,45,06,63,260,40,26,07,052,28,8*66
$GPGSV,2,2,05,09,74,212,,8*53
$GLGSV,3,1,10,66,29,066,37,82,37,215,24,77,18,120,34,76,30,064,39,1*7D
$GLGSV,3,2,10,83,51,286,27,67,73,355,36,68,34,270,37,75,13,014,,1*70
$GLGSV,3,3,10,84,11,340,,81,00,000,,1*7B
$GAGSV,3,1,09,02,16,060,36,07,80,074,34,08,26,066,28,13,07,168,24,7*7F
$GAGSV,3,2,09,25,07,012,24,30,07,108,32,33,47,291,42,12,07,327,,7*7F
$GAGSV,3,3,09,26,47,206,,7*49
$GAGSV,3,1,09,02,16,060,37,07,80,074,45,08,26,066,38,25,07,012,25,1*77
$GAGSV,3,2,09,30,07,108,28,33,47,291,41,12,07,327,,13,07,168,,1*7E
$GAGSV,3,3,09,26,47,206,,1*4F
$GQGSV,1,1,01,-190,04,033,23,1*44
$GQGSV,1,1,01,-190,04,033,,8*4C
$GBGSV,3,1,12,33,72,073,30,30,14,327,44,27,36,275,39,26,24,053,36,1*7E
$GBGSV,3,2,12,25,06,157,25,24,29,106,32,14,43,082,39,09,16,050,39,1*79
$GBGSV,3,3,12,07,04,061,25,05,11,119,40,10,01,085,,28,23,215,,1*7E
$GBGSV,2,1,07,24,29,106,40,25,06,157,25,26,24,053,39,27,36,275,38,5*78
$GBGSV,2,2,07,30,14,327,35,33,72,073,44,28,23,215,,5*4F
$GIGSV,1,1,04,02,11,122,32,06,26,144,34,09,20,115,30,04,00,000,,1*76
$GNGSA,A,3,02,03,04,06,07,22,,,,,,,0.8,0.6,0.6,1*3D
$GNGSA,A,3,66,67,68,76,77,83,,,,,,,0.8,0.6,0.6,2*3F
$GNGSA,A,3,02,07,08,13,25,30,33,,,,,,0.8,0.6,0.6,3*30
$GNGSA,A,3,09,14,24,26,27,30,33,,,,,,0.8,0.6,0.6,4*34
$GNVTG,,T,,M,0.0,N,0.0,K,A*3D
$GNRMC,101951.00,A,5200.055904,N,00422.749014,E,0.0,,191120,1.8,W,A,V*62
$GNGGA,101951.00,5200.055904,N,00422.749014,E,1,12,0.6,-9.7,M,47.0,M,,*5B
$GPGSV,3,1,10,02,28,309,43,03,30,101,33,04,60,067,28,06,63,260,24,1*6A
$GPGSV,3,2,10,07,17,168,24,09,74,212,24,19,17,234,23,22,09,108,42,1*6D
$GPGSV,3,3,10,26,07,052,28,17,08,223,,1*66
$GPGSV,2,1,05,03,30,101,35,04,60,067,45,06,63,260,40,26,07,052,28,8*62
$GPGSV,2,2,05,09,74,212,,8*53
$GLGSV,3,1,10,66,29,066,35,82,37,215,25,77,18,120,33,76,30,064,36,1*76
$GLGSV,3,2,10,83,51,286,27,67,73,355,35,68,34,270,36,75,13,014,,1*72
$GLGSV,3,3,10,84,11,340,,81,00,000,,1*7B
$GAGSV,3,1,09,02,16,060,30,07,80,074,32,08,26,066,30,13,07,168,24,7*76
$GAGSV,3,2,09,25,07,012,24,30,07,108,34,33,47,291,42,12,07,327,,7*79
$GAGSV,3,3,09,26,47,206,,7*49
$GAGSV,3,1,09,02,16,060,37,07,80,074,45,08,26,066,35,25,07,012,26,1*79
$GAGSV,3,2,09,30,07,108,30,33,47,291,42,12,07,327,,13,07,168,,1*74
$GAGSV,3,3,09,26,47,206,,1*4F
$GQGSV,1,1,01,-190,04,033,23,1*44
$GQGSV,1,1,01,-190,04,033,,8*4C
$GBGSV,3,1,12,33,72,073,30,30,14,327,44,27,36,275,38,26,24,053,37,1*7E
$GBGSV,3,2,12,25,06,157,25,24,29,106,34,14,43,082,40,09,16,050,36,1*7E
$GBGSV,3,3,12,07,04,061,25,05,11,119,41,10,01,085,,28,23,215,,1*7F
$GBGSV,2,1,07,24,29,106,41,25,06,157,25,26,24,053,40,27,36,275,38,5*77
$GBGSV,2,2,07,30,14,327,35,33,72,073,45,28,23,215,,5*4E
$GIGSV,1,1,04,02,11,122,33,06,26,144,33,09,20,115,32,04,00,000,,1*72
$GNGSA,A,3,02,03,04,06,07,22,,,,,,,0.8,0.6,0.6,1*3D
$GNGSA,A,3,66,67,68,76,77,83,,,,,,,0.8,0.6,0.6,2*3F
$GNGSA,A,3,02,07,08,13,25,30,33,,,,,,0.8,0.6,0.6,3*30
$GNGSA,A,3,09,14,24,26,27,30,33,,,,,,0.8,0.6,0.6,4*34
$GNVTG,,T,,M,0.0,N,0.0,K,A*3D
$GNRMC,101952.00,A,5200.055895,N,00422.749018,E,0.0,,191120,1.8,W,A,V*64
$GNGGA,101952.00,5200.055895,N,00422.749018,E,1,12,0.6,-9.7,M,47.0,M,,*5D
$GPGSV,3,1,10,02,28,309,42,03,30,101,32,04,60,067,26,06,63,260,27,1*67
$GPGSV,3,2,10,07,17,168,24,09,74,212,24,19,17,234,22,22,09,108,43,1*6D
$GPGSV,3,3,10,26,07,052,30,17,08,223,,1*6F
$GPGSV,2,1,05,03,30,101,31,04,60,067,45,06,63,260,40,26,07,052,28,8*66
$GPGSV,2,2,05,09,74,212,,8*53
$GLGSV,3,1,10,66,29,066,38,82,37,215,25,77,18,120,35,76,30,064,40,1*7C
$GLGSV,3,2,10,83,51,286,28,67,73,355,37,68,34,270,37,75,13,014,,1*7E
$GLGSV,3,3,10,84,11,340,,81,00,000,,1*7B
$GAGSV,3,1,09,02,16,060,36,07,80,074,32,08,26,066,30,13,07,168,24,7*70
$GAGSV,3,2,09,25,07,012,26,30,07,108,35,33,47,291,42,12,07,327,,7*7A
$GAGSV,3,3,09,26,47,206,,7*49
$GAGSV,3,1,09,02,16,060,37,07,80,074,45,08,26,066,38,25,07,012,25,1*77
$GAGSV,3,2,09,30,07,108,31,33,47,291,42,12,07,327,,13,07,168,,1*75
$GAGSV,3,3,09,26,47,206,,1*4F
$GQGSV,1,1,01,-190,04,033,22,1*45
$GQGSV,1,1,01,-190,04,033,,8*4C
$GBGSV,3,1,12,33,72,073,30,30,14,327,44,27,36,275,39,26,24,053,40,1*7F
$GBGSV,3,2,12,25,06,157,25,24,29,106,33,14,43,082,40,09,16,050,40,1*78
$GBGSV,3,3,12,07,04,061,25,05,11,119,41,10,01,085,,28,23,215,,1*7F
$GBGSV,2,1,06,24,29,106,40,25,06,157,25,26,24,053,37,27,36,275,37,5*78
$GBGSV,2,2,06,30,14,327,35,33,72,073,45,5*72
$GIGSV,1,1,04,02,11,122,32,06,26,144,32,09,20,115,35,04,00,000,,1*75
$GNGSA,A,3,02,03,04,06,07,09,19,22,,,,,0.8,0.6,0.6,1*3C
$GNGSA,A,3,66,67,68,76,77,82,83,,,,,,0.8,0.6,0.6,2*35
$GNGSA,A,3,02,07,08,25,30,33,,,,,,,0.8,0.6,0.6,3*32
$GNGSA,A,3,09,14,24,26,27,30,33,,,,,,0.8,0.6,0.6,4*34
$GNVTG,,T,,M,0.0,N,0.0,K,A*3D
$GNRMC,101953.00,A,5200.055882,N,00422.749013,E,0.0,,191120,1.8,W,A,V*68
$GNGGA,101953.00,5200.055882,N,00422.749013,E,1,12,0.6,-9.8,M,47.0,M,,*5E
$GPGSV,3,1,10,02,28,309,43,03,30,101,31,04,60,067,30,06,63,260,24,1*61
$GPGSV,3,2,10,07,17,168,24,09,74,212,24,19,17,234,24,22,09,108,43,1*6B
$GPGSV,3,3,10,26,07,052,30,17,08,223,,1*6F
$GPGSV,2,1,05,03,30,101,34,04,60,067,45,06,63,260,41,26,07,052,28,8*62
$GPGSV,2,2,05,09,74,212,,8*53
$GLGSV,3,1,10,66,29,066,37,82,37,215,25,77,18,120,34,76,30,064,41,1*73
$GLGSV,3,2,10,83,51,286,28,67,73,355,35,68,34,270,37,75,13,014,,1*7C
$GLGSV,3,3,10,84,11,340,,81,00,000,,1*7B
$GAGSV,3,1,09,02,16,060,36,07,80,074,34,08,26,066,27,13,07,168,24,7*70
$GAGSV,3,2,09,25,07,012,26,30,07,108,36,33,47,291,41,12,07,327,,7*7A
$GAGSV,3,3,09,26,47,206,,7*49
$GAGSV,3,1,09,02,16,060,37,07,80,074,45,08,26,066,37,25,07,012,25,1*78
$GAGSV,3,2,09,30,07,108,32,33,47,291,42,12,07,327,,13,07,168,,1*76
$GAGSV,3,3,09,26,47,206,,1*4F
$GQGSV,1,1,01,-190,04,033,22,1*45
$GQGSV,1,1,01,-190,04,033,,8*4C
$GBGSV,3,1,12,33,72,073,29,30,14,327,44,27,36,275,37,26,24,053,38,1*76
$GBGSV,3,2,12,25,06,157,25,24,29,106,32,14,43,082,40,09,16,050,41,1*78
$GBGSV,3,3,12,07,04,061,26,05,11,119,40,10,01,085,,28,23,215,,1*7D
$GBGSV,2,1,07,24,29,106,42,25,06,157,25,26,24,053,39,27,36,275,34,5*76
$GBGSV,2,2,07,30,14,327,34,33,72,073,44,28,23,215,,5*4E
$GIGSV,1,1,04,02,11,122,32,06,26,144,36,09,20,115,36,04,00,000,,1*72
$GNGSA,A,3,02,03,04,06,07,09,19,22,,,,,0.8,0.6,0.6,1*3C
$GNGSA,A,3,66,67,68,76,77,82,83,,,,,,0.8,0.6,0.6,2*35
$GNGSA,A,3,02,07,08,25,30,33,,,,,,,0.8,0.6,0.6,3*32
$GNGSA,A,3,07,09,14,24,26,27,30,33,,,,,0.8,0.6,0.6,4*33
$GNVTG,,T,,M,0.0,N,0.0,K,A*3D
$GNRMC,101954.00,A,5200.055859,N,00422.749013,E,0.0,,191120,1.8,W,A,V*69
$GNGGA,101954.00,5200.055859,N,00422.749013,E,1,12,0.6,-9.7,M,47.0,M,,*50
$GPGSV,3,1,10,02,28,309,42,03,30,101,35,04,60,067,27,06,63,260,24,1*62
$GPGSV,3,2,10,07,17,168,24,09,74,212,24,19,17,234,24,22,09,108,40,1*68
$GPGSV,3,3,10,26,07,052,28,17,08,223,,1*66
$GPGSV,2,1,05,03,30,101,29,04,60,067,44,06,63,260,41,26,07,052,28,8*6F
$GPGSV,2,2,05,09,74,212,,8*53
$GLGSV,3,1,10,66,29,066,37,82,37,215,24,77,18,120,33,76,30,064,40,1*74
$GLGSV,3,2,10,83,51,286,28,67,73,355,35,68,34,270,36,75,13,014,,1*7D
$GLGSV,3,3,10,84,11,340,,81,00,000,,1*7B
$GAGSV,3,1,09,02,16,060,36,07,80,074,35,08,26,066,27,13,07,168,24,7*71
$GAGSV,3,2,09,25,07,012,26,30,07,108,31,33,47,291,40,12,07,327,,7*7C
$GAGSV,3,3,09,26,47,206,,7*49
$GAGSV,3,1,09,02,16,060,38,07,80,074,45,08,26,066,37,25,07,012,25,1*77
$GAGSV,3,2,09,30,07,108,32,33,47,291,40,12,07,327,,13,07,168,,1*74
$GAGSV,3,3,09,26,47,206,,1*4F
$GQGSV,1,1,01,-190,04,033,22,1*45
$GQGSV,1,1,01,-190,04,033,,8*4C
$GBGSV,3,1,12,33,72,073,31,30,14,327,44,27,36,275,33,26,24,053,34,1*77
$GBGSV,3,2,12,25,06,157,25,24,29,106,33,14,43,082,39,09,16,050,39,1*78
$GBGSV,3,3,12,07,04,061,26,05,11,119,39,10,01,085,,28,23,215,,1*73
$GBGSV,2,1,07,24,29,106,40,25,06,157,25,26,24,053,39,27,36,275,36,5*76
$GBGSV,2,2,07,30,14,327,35,33,72,073,44,28,23,215,,5*4F
$GIGSV,1,1,04,02,11,122,30,06,26,144,33,09,20,115,34,04,00,000,,1*77
$GNGSA,A,3,02,03,04,06,07,09,19,22,,,,,0.8,0.6,0.6,1*3C
$GNGSA,A,3,66,67,68,76,77,82,83,,,,,,0.8,0.6,0.6,2*35
$GNGSA,A,3,02,07,08,25,30,33,,,,,,,0.8,0.6,0.6,3*32
$GNGSA,A,3,07,09,14,24,26,27,30,33,,,,,0.8,0.6,0.6,4*33
$GNVTG,,T,,M,0.0,N,0.0,K,A*3D
$GNRMC,101955.00,A,5200.055847,N,00422.749019,E,0.0,,191120,1.8,W,A,V*6D
$GNGGA,101955.00,5200.055847,N,00422.749019,E,1,12,0.6,-9.7,M,47.0,M,,*54
$GPGSV,3,1,10,02,28,309,40,03,30,101,35,04,60,067,29,06,63,260,30,1*6B
$GPGSV,3,2,10,07,17,168,24,09,74,212,24,19,17,234,24,22,09,108,43,1*6B
$GPGSV,3,3,10,26,07,052,30,17,08,223,,1*6F
$GPGSV,2,1,05,03,30,101,34,04,60,067,44,06,63,260,41,26,07,052,28,8*63
$GPGSV,2,2,05,09,74,212,,8*53
$GLGSV,3,1,10,66,29,066,36,82,37,215,24,77,18,120,34,76,30,064,41,1*73
$GLGSV,3,2,10,83,51,286,28,67,73,355,34,68,34,270,39,75,13,014,,1*73
$GLGSV,3,3,10,84,11,340,,81,00,000,,1*7B
$GAGSV,3,1,09,02,16,060,37,07,80,074,33,08,26,066,29,13,07,168,24,7*78
$GAGSV,3,2,09,25,07,012,26,30,07,108,33,33,47,291,38,12,07,327,,7*71
$GAGSV,3,3,09,26,47,206,,7*49
$GAGSV,3,1,09,02,16,060,39,07,80,074,45,08,26,066,36,25,07,012,26,1*74
$GAGSV,3,2,09,30,07,108,32,33,47,291,39,12,07,327,,13,07,168,,1*7A
$GAGSV,3,3,09,26,47,206,,1*4F
$GQGSV,1,1,01,-190,04,033,22,1*45
$GQGSV,1,1,01,-190,04,033,,8*4C
$GBGSV,3,1,12,33,72,073,27,30,14,327,43,27,36,275,40,26,24,053,39,1*7E
$GBGSV,3,2,12,25,06,157,25,24,29,106,34,14,43,082,40,09,16,050,40,1*7F
$GBGSV,3,3,12,07,04,061,26,05,11,119,41,10,01,085,,28,23,215,,1*7C
$GBGSV,2,1,07,24,29,106,41,25,06,157,25,26,24,053,40,27,36,275,34,5*7B
$GBGSV,2,2,07,30,14,327,34,33,72,073,44,28,23,215,,5*4E
$GIGSV,1,1,04,02,11,122,29,06,26,144,33,09,20,115,33,04,00,000,,1*78
$GNGSA,A,3,02,03,04,06,07,09,19,22,,,,,0.8,0.6,0.6,1*3C
$GNGSA,A,3,66,67,68,76,77,82,83,,,,,,0.8,0.6,0.6,2*35
$GNGSA,A,3,02,07,08,25,30,33,,,,,,,0.8,0.6,0.6,3*32
$GNGSA,A,3,07,09,14,24,26,27,30,33,,,,,0.8,0.6,0.6,4*33
$GNVTG,,T,,M,0.0,N,0.0,K,A*3D
$GNRMC,101956.00,A,5200.055835,N,00422.749022,E,0.0,,191120,1.8,W,A,V*63
$GNGGA,101956.00,5200.055835,N,00422.749022,E,1,12,0.6,-9.7,M,47.0,M,,*5A
$GPGSV,3,1,10,02,28,309,41,03,30,101,36,04,60,067,29,06,63,260,29,1*61
$GPGSV,3,2,10,07,17,168,24,09,74,212,24,19,17,234,24,22,09,108,44,1*6C
$GPGSV,3,3,10,26,07,052,29,17,08,223,,1*67
$GPGSV,1,1,04,03,30,101,35,04,60,067,44,06,63,260,37,26,07,052,28,8*61
$GLGSV,3,1,10,66,29,066,37,82,37,215,24,77,18,120,35,76,30,064,41,1*73
$GLGSV,3,2,10,83,51,286,24,67,73,355,36,68,34,270,33,75,13,014,,1*77
$GLGSV,3,3,10,84,11,340,,81,00,000,,1*7B
$GAGSV,3,1,09,02,16,060,38,07,80,074,34,08,26,066,31,13,07,168,24,7*79
$GAGSV,3,2,09,25,07,012,25,30,07,108,36,33,47,291,40,12,07,327,,7*78
$GAGSV,3,3,09,26,47,206,,7*49
$GAGSV,3,1,09,02,16,060,35,07,80,074,44,08,26,066,39,25,07,012,26,1*76
$GAGSV,3,2,09,30,07,108,32,33,47,291,37,12,07,327,,13,07,168,,1*74
$GAGSV,3,3,09,26,47,206,,1*4F
$GQGSV,1,1,01,-190,04,033,22,1*45
$GBGSV,3,1,12,33,72,073,27,30,14,327,44,27,36,275,34,26,24,053,38,1*7B
$GBGSV,3,2,12,25,06,157,25,24,29,106,36,14,43,082,40,09,16,050,40,1*7D
$GBGSV,3,3,12,07,04,061,26,05,11,119,41,10,01,085,,28,23,215,,1*7C
$GBGSV,2,1,07,24,29,106,42,25,06,157,25,26,24,053,40,27,36,275,34,5*78
$GBGSV,2,2,07,30,14,327,36,33,72,073,45,28,23,215,,5*4D
$GIGSV,1,1,04,02,11,122,30,06,26,144,33,09,20,115,35,04,00,000,,1*76
$GNGSA,A,3,02,03,04,06,07,09,19,22,,,,,0.8,0.6,0.6,1*3C
$GNGSA,A,3,66,67,68,76,77,82,83,,,,,,0.8,0.6,0.6,2*35
$GNGSA,A,3,02,07,08,25,30,33,,,,,,,0.8,0.6,0.6,3*32
$GNGSA,A,3,07,09,14,24,26,27,30,33,,,,,0.8,0.6,0.6,4*33
$GNVTG,,T,,M,0.0,N,0.0,K,A*3D
$GNRMC,101957.00,A,5200.055806,N,00422.749023,E,0.0,,191120,1.8,W,A,V*63
$GNGGA,101957.00,5200.055806,N,00422.749023,E,1,12,0.6,-9.6,M,47.0,M,,*5B
$GPGSV,3,1,10,02,28,309,40,03,30,101,33,04,60,067,28,06,63,260,26,1*6B
$GPGSV,3,2,10,07,17,168,24,09,74,212,24,19,17,234,24,22,09,108,43,1*6B
$GPGSV,3,3,10,26,07,052,29,17,08,223,,1*67
$GPGSV,2,1,05,03,30,101,31,04,60,067,45,06,63,260,34,26,07,052,28,8*65
$GPGSV,2,2,05,09,74,212,,8*53
$GLGSV,3,1,10,66,29,066,34,82,37,215,24,77,18,120,35,76,30,064,41,1*70
$GLGSV,3,2,10,83,51,286,24,67,73,355,33,68,34,270,26,75,13,014,,1*76
$GLGSV,3,3,10,84,11,340,,81,00,000,,1*7B
$GAGSV,3,1,09,02,16,060,36,07,80,074,34,08,26,066,26,13,07,168,24,7*71
$GAGSV,3,2,09,25,07,012,25,30,07,108,34,33,47,291,41,12,07,327,,7*7B
$GAGSV,3,3,09,26,47,206,,7*49
$GAGSV,3,1,09,02,16,060,35,07,80,074,44,08,26,066,37,25,07,012,26,1*78
$GAGSV,3,2,09,30,07,108,30,33,47,291,36,12,07,327,,13,07,168,,1*77
$GAGSV,3,3,09,26,47,206,,1*4F
$GQGSV,1,1,01,-190,04,033,22,1*45
$GQGSV,1,1,01,-190,04,033,,8*4C
$GBGSV,3,1,12,33,72,073,28,30,14,327,44,27,36,275,34,26,24,053,35,1*79
$GBGSV,3,2,12,25,06,157,25,24,29,106,32,14,43,082,40,09,16,050,39,1*77
$GBGSV,3,3,12,07,04,061,26,05,11,119,40,10,01,085,,28,23,215,,1*7D
$GBGSV,2,1,07,24,29,106,41,25,06,157,25,26,24,053,41,27,36,275,35,5*7B
$GBGSV,2,2,07,30,14,327,32,33,72,073,44,28,23,215,,5*48
$GIGSV,1,1,04,02,11,122,26,06,26,144,33,09,20,115,34,04,00,000,,1*70
$GNGSA,A,3,02,03,04,06,09,19,22,,,,,,0.8,0.6,0.6,1*3B
$GNGSA,A,3,66,67,68,76,77,82,83,,,,,,0.8,0.6,0.6,2*35
$GNGSA,A,3,02,07,08,25,30,33,,,,,,,0.8,0.6,0.6,3*32
$GNGSA,A,3,07,09,14,24,26,27,30,33,,,,,0.8,0.6,0.6,4*33
$GNVTG,,T,,M,0.0,N,0.0,K,A*3D
$GNRMC,101958.00,A,5200.055802,N,00422.749032,E,0.0,,191120,1.8,W,A,V*68
$GNGGA,101958.00,5200.055802,N,00422.749032,E,1,12,0.6,-9.6,M,47.0,M,,*50
$GPGSV,3,1,10,02,28,309,37,03,30,101,32,04,60,067,30,06,63,260,25,1*60
$GPGSV,3,2,10,07,17,168,24,09,74,212,24,19,17,234,23,22,09,108,43,1*6C
$GPGSV,3,3,10,26,07,052,29,17,08,223,,1*67
$GPGSV,2,1,05,03,30,101,33,04,60,067,44,06,63,260,38,26,07,052,28,8*6A
$GPGSV,2,2,05,09,74,212,,8*53
$GLGSV,3,1,10,66,29,066,34,82,37,215,24,77,18,120,34,76,30,064,41,1*71
$GLGSV,3,2,10,83,51,286,23,67,73,355,39,68,34,270,27,75,13,014,,1*7A
$GLGSV,3,3,10,84,11,340,,81,00,000,,1*7B
$GAGSV,3,1,09,02,16,060,36,07,80,074,34,08,26,066,27,13,07,168,24,7*70
$GAGSV,3,2,09,25,07,012,28,30,07,108,35,33,47,291,36,12,07,327,,7*77
$GAGSV,3,3,09,26,47,206,,7*49
$GAGSV,2,1,06,02,16,060,37,07,80,074,45,08,26,066,38,25,07,012,26,1*7A
$GAGSV,2,2,06,30,07,108,33,33,47,291,39,1*7D
$GQGSV,1,1,01,-190,04,033,23,1*44
$GQGSV,1,1,01,-190,04,033,,8*4C
$GBGSV,3,1,12,33,72,073,29,30,14,327,43,27,36,275,35,26,24,053,38,1*73
$GBGSV,3,2,12,25,06,157,25,24,29,106,30,14,43,082,39,09,16,050,39,1*7B
$GBGSV,3,3,12,07,04,061,26,05,11,119,40,10,01,085,,28,23,215,,1*7D
$GBGSV,2,1,07,24,29,106,42,25,06,157,25,26,24,053,40,27,36,275,32,5*7E
$GBGSV,2,2,07,30,14,327,34,33,72,073,45,28,23,215,,5*4F
$GIGSV,1,1,04,02,11,122,30,06,26,144,33,09,20,115,33,04,00,000,,1*70
$GNGSA,A,3,02,03,04,06,09,19,22,,,,,,0.8,0.6,0.6,1*3B
$GNGSA,A,3,66,67,68,76,77,82,83,,,,,,0.8,0.6,0.6,2*35
$GNGSA,A,3,02,07,08,25,30,33,,,,,,,0.8,0.6,0.6,3*32
$GNGSA,A,3,07,09,14,24,26,27,30,33,,,,,0.8,0.6,0.6,4*33
$GNVTG,,T,,M,0.0,N,0.0,K,A*3D
$GNRMC,101959.00,A,5200.055825,N,00422.749058,E,0.0,,191120,1.8,W,A,V*60
$GNGGA,101959.00,5200.055825,N,00422.749058,E,1,12,0.6,-9.6,M,47.0,M,,*58
$GPGSV,3,1,10,02,28,309,37,03,30,101,35,04,60,067,29,06,63,260,31,1*6A
$GPGSV,3,2,10,07,17,168,24,09,74,212,24,19,17,234,24,22,09,108,43,1*6B
$GPGSV,3,3,10,26,07,052,29,17,08,223,,1*67
$GPGSV,2,1,05,03,30,101,34,04,60,067,44,06,63,260,40,26,07,052,28,8*62
$GPGSV,2,2,05,09,74,212,,8*53
$GLGSV,3,1,10,66,29,066,34,82,37,215,24,77,18,120,33,76,30,064,39,1*79
$GLGSV,3,2,10,83,51,286,25,67,73,355,35,68,34,270,39,75,13,014,,1*7F
$GLGSV,3,3,10,84,11,340,,81,00,000,,1*7B
$GAGSV,3,1,09,02,16,060,35,07,80,074,34,08,26,066,27,13,07,168,24,7*73
$GAGSV,3,2,09,25,07,012,28,30,07,108,35,33,47,291,40,12,07,327,,7*76
$GAGSV,3,3,09,26,47,206,,7*49
$GAGSV,3,1,09,02,16,060,37,07,80,074,45,08,26,066,38,25,07,012,26,1*74
$GAGSV,3,2,09,30,07,108,33,33,47,291,38,12,07,327,,13,07,168,,1*7A
$GAGSV,3,3,09,26,47,206,,1*4F
$GQGSV,1,1,01,-190,04,033,23,1*44
$GQGSV,1,1,01,-190,04,033,,8*4C
$GBGSV,3,1,12,33,72,073,29,30,14,327,44,27,36,275,40,26,24,053,36,1*78
$GBGSV,3,2,12,25,06,157,25,24,29,106,32,14,43,082,39,09,16,050,39,1*79
$GBGSV,3,3,12,07,04,061,26,05,11,119,39,10,01,085,,28,23,215,,1*73
$GBGSV,2,1,07,24,29,106,41,25,06,157,25,26,24,053,39,27,36,275,38,5*79
$GBGSV,2,2,07,30,14,327,32,33,72,073,44,28,23,215,,5*48
$GIGSV,1,1,04,02,11,122,31,06,26,144,33,09,20,115,34,04,00,000,,1*76
$GNGSA,A,3,02,03,04,06,09,19,22,,,,,,0.9,0.6,0.6,1*3A
$GNGSA,A,3,66,67,68,76,77,82,83,,,,,,0.9,0.6,0.6,2*34
$GNGSA,A,3,02,07,08,25,30,33,,,,,,,0.9,0.6,0.6,3*33
$GNGSA,A,3,09,14,24,26,27,30,33,,,,,,0.9,0.6,0.6,4*35
$GNVTG,,T,,M,0.0,N,0.0,K,A*3D
$GNRMC,102000.00,A,5200.055820,N,00422.749066,E,0.0,,191120,1.8,W,A,V*6E
$GNGGA,102000.00,5200.055820,N,00422.749066,E,1,12,0.6,-9.6,M,47.0,M,,*56
$GPGSV,3,1,10,02,28,309,39,03,30,101,32,04,60,067,30,06,63,260,29,1*62
$GPGSV,3,2,10,07,17,168,24,09,74,212,24,19,17,234,24,22,09,108,42,1*6A
$GPGSV,3,3,10,26,07,052,28,17,08,223,,1*66
$GPGSV,1,1,04,03,30,101,33,04,60,067,45,06,63,260,40,09,74,212,,8*63
$GLGSV,3,1,10,66,29,066,35,82,37,215,24,77,18,120,35,76,30,064,40,1*70
$GLGSV,3,2,10,83,51,286,25,67,73,355,38,68,34,270,35,75,13,014,,1*7E
$GLGSV,3,3,10,84,11,340,,81,00,000,,1*7B
$GAGSV,3,1,09,02,16,060,36,07,80,074,33,08,26,066,31,13,07,168,23,7*77
$GAGSV,3,2,09,25,07,012,28,30,07,108,34,33,47,291,41,12,07,327,,7*76
$GAGSV,3,3,09,26,47,206,,7*49
$GAGSV,3,1,09,02,16,060,38,07,80,074,45,08,26,066,37,25,07,012,25,1*77
$GAGSV,3,2,09,30,07,108,31,33,47,291,39,12,07,327,,13,07,168,,1*79
$GAGSV,3,3,09,26,47,206,,1*4F
$GQGSV,1,1,01,-190,04,033,23,1*44
$GQGSV,1,1,01,-190,04,033,,8*4C
$GBGSV,3,1,12,33,72,073,28,30,14,327,44,27,36,275,37,26,24,053,36,1*79
$GBGSV,3,2,12,25,06,157,25,24,29,106,32,14,43,082,41,09,16,050,40,1*78
$GBGSV,3,3,12,07,04,061,26,05,11,119,42,10,01,085,,28,23,215,,1*7F
$GBGSV,2,1,07,24,29,106,40,25,06,157,25,26,24,053,39,27,36,275,38,5*78
$GBGSV,2,2,07,30,14,327,34,33,72,073,44,28,23,215,,5*4E
$GIGSV,1,1,04,02,11,122,30,06,26,144,33,09,20,115,34,04,00,000,,1*77
$GNGSA,A,3,02,03,04,06,09,19,22,,,,,,0.8,0.5,0.6,1*38
$GNGSA,A,3,66,67,68,76,77,82,83,,,,,,0.8,0.5,0.6,2*36
$GNGSA,A,3,02,07,08,13,25,30,33,,,,,,0.8,0.5,0.6,3*33
$GNGSA,A,3,09,14,24,26,27,30,33,,,,,,0.8,0.5,0.6,4*37
$GNVTG,,T,,M,0.0,N,0.0,K,A*3D
$GNRMC,102001.00,A,5200.055852,N,00422.749093,E,0.0,,191120,1.8,W,A,V*60
$GNGGA,102001.00,5200.055852,N,00422.749093,E,1,12,0.5,-9.5,M,47.0,M,,*58
$GPGSV,3,1,10,02,28,309,39,03,30,101,35,04,60,067,35,06,63,260,29,1*60
$GPGSV,3,2,10,07,17,168,24,09,74,212,24,19,17,234,24,22,09,108,43,1*6B
$GPGSV,3,3,10,26,07,052,29,17,08,223,,1*67
$GPGSV,2,1,05,03,30,101,33,04,60,067,44,06,63,260,41,09,74,212,,8*61
$GPGSV,2,2,05,26,07,052,,8*5C
$GLGSV,3,1,10,66,29,066,35,82,37,215,24,77,18,120,35,76,30,064,40,1*70
$GLGSV,3,2,10,83,51,286,25,67,73,355,36,68,34,270,38,75,13,014,,1*7D
$GLGSV,3,3,10,84,11,340,,81,00,000,,1*7B
$GAGSV,3,1,09,02,16,060,36,07,80,074,33,08,26,066,28,13,07,168,23,7*7F
$GAGSV,3,2,09,25,07,012,26,30,07,108,34,33,47,291,39,12,07,327,,7*77
$GAGSV,3,3,09,26,47,206,,7*49
$GAGSV,3,1,09,02,16,060,38,07,80,074,45,08,26,066,38,25,07,012,25,1*78
$GAGSV,3,2,09,30,07,108,35,33,47,291,39,12,07,327,,13,07,168,,1*7D
$GAGSV,3,3,09,26,47,206,,1*4F
$GQGSV,1,1,01,-190,04,033,23,1*44
$GQGSV,1,1,01,-190,04,033,,8*4C
$GBGSV,3,1,12,33,72,073,30,30,14,327,43,27,36,275,38,26,24,053,36,1*78
$GBGSV,3,2,12,25,06,157,25,24,29,106,30,14,43,082,41,09,16,050,39,1*74
$GBGSV,3,3,12,07,04,061,26,05,11,119,42,10,01,085,,28,23,215,,1*7F
$GBGSV,2,1,07,24,29,106,42,25,06,157,25,26,24,053,40,27,36,275,34,5*78
$GBGSV,2,2,07,30,14,327,34,33,72,073,44,28,23,215,,5*4E
$GIGSV,1,1,04,02,11,122,32,06,26,144,35,09,20,115,34,04,00,000,,1*73
$GNGSA,A,3,02,03,04,06,09,19,22,,,,,,0.8,0.5,0.6,1*38
$GNGSA,A,3,66,67,68,76,77,82,83,,,,,,0.8,0.5,0.6,2*36
$GNGSA,A,3,02,07,08,13,25,30,33,,,,,,0.8,0.5,0.6,3*33
$GNGSA,A,3,09,14,24,26,27,30,33,,,,,,0.8,0.5,0.6,4*37
$GNVTG,,T,,M,0.0,N,0.0,K,A*3D
$GNRMC,102002.00,A,5200.055852,N,00422.749098,E,0.0,,191120,1.8,W,A,V*68
$GNGGA,102002.00,5200.055852,N,00422.749098,E,1,12,0.5,-9.5,M,47.0,M,,*50
$GPGSV,3,1,10,02,28,309,39,03,30,101,35,04,60,067,31,06,63,260,25,1*68
$GPGSV,3,2,10,07,17,168,24,09,74,212,24,19,17,234,24,22,09,108,42,1*6A
$GPGSV,3,3,10,26,07,052,28,17,08,223,,1*66
$GPGSV,2,1,05,03,30,101,32,04,60,067,44,06,63,260,41,09,74,212,,8*60
$GPGSV,2,2,05,26,07,052,,8*5C
$GLGSV,3,1,10,66,29,066,34,82,37,215,24,77,18,120,34,76,30,064,40,1*70
$GLGSV,3,2,10,83,51,286,24,67,73,355,36,68,34,270,36,75,13,014,,1*72
$GLGSV,3,3,10,84,11,340,,81,00,000,,1*7B
$GAGSV,3,1,09,02,16,060,35,07,80,074,35,08,26,066,25,13,07,168,23,7*77
$GAGSV,3,2,09,25,07,012,25,30,07,108,34,33,47,291,40,12,07,327,,7*7A
$GAGSV,3,3,09,26,47,206,,7*49
$GAGSV,3,1,09,02,16,060,38,07,80,074,45,08,26,066,38,25,07,012,25,1*78
$GAGSV,3,2,09,30,07,108,34,33,47,291,39,12,07,327,,13,07,168,,1*7C
$GAGSV,3,3,09,26,47,206,,1*4F
$GQGSV,1,1,01,-190,04,033,23,1*44
$GQGSV,1,1,01,-190,04,033,,8*4C
$GBGSV,3,1,12,33,72,073,30,30,14,327,43,27,36,275,38,26,24,053,36,1*78
$GBGSV,3,2,12,25,06,157,26,24,29,106,33,14,43,082,40,09,16,050,39,1*75
$GBGSV,3,3,12,07,04,061,26,05,11,119,41,10,01,085,,28,23,215,,1*7C
$GBGSV,2,1,07,24,29,106,42,25,06,157,25,26,24,053,39,27,36,275,35,5*77
$GBGSV,2,2,07,30,14,327,34,33,72,073,45,28,23,215,,5*4F
$GIGSV,1,1,04,02,11,122,31,06,26,144,34,09,20,115,34,04,00,000,,1*71
$GNGSA,A,3,02,03,04,06,09,19,22,,,,,,0.8,0.5,0.6,1*38
$GNGSA,A,3,66,67,68,76,77,83,,,,,,,0.8,0.5,0.6,2*3C
$GNGSA,A,3,02,07,08,13,25,30,33,,,,,,0.8,0.5,0.6,3*33
$GNGSA,A,3,09,14,24,25,26,27,30,33,,,,,0.8,0.5,0.6,4*30
$GNVTG,,T,,M,0.0,N,0.0,K,A*3D
$GNRMC,102003.00,A,5200.055907,N,00422.749130,E,0.0,,191120,1.8,W,A,V*6B
$GNGGA,102003.00,5200.055907,N,00422.749130,E,1,12,0.5,-9.4,M,47.0,M,,*52
$GPGSV,3,1,10,02,28,309,36,03,30,101,35,04,60,067,30,06,63,260,28,1*6B
$GPGSV,3,2,10,07,17,168,24,09,74,212,24,19,17,234,24,22,09,108,43,1*6B
$GPGSV,3,3,10,26,07,052,26,17,08,223,,1*68
$GPGSV,2,1,05,03,30,101,31,04,60,067,44,06,63,260,41,09,74,212,,8*63
$GPGSV,2,2,05,26,07,052,,8*5C
$GLGSV,3,1,10,66,29,066,32,82,37,215,24,77,18,120,34,76,30,064,38,1*79
$GLGSV,3,2,10,83,51,286,24,67,73,355,36,68,34,270,32,75,13,014,,1*76
$GLGSV,3,3,10,84,11,340,,81,00,000,,1*7B
$GAGSV,3,1,09,02,16,060,35,07,80,074,34,08,26,066,28,13,07,168,23,7*7B
$GAGSV,3,2,09,25,07,012,27,30,07,108,35,33,47,291,40,12,07,327,,7*79
$GAGSV,3,3,09,26,47,206,,7*49
$GAGSV,3,1,09,02,16,060,38,07,80,074,45,08,26,066,38,25,07,012,25,1*78
$GAGSV,3,2,09,30,07,108,34,33,47,291,40,12,07,327,,13,07,168,,1*72
$GAGSV,3,3,09,26,47,206,,1*4F
$GQGSV,1,1,01,-190,04,033,23,1*44
$GQGSV,1,1,01,-190,04,033,,8*4C
$GBGSV,3,1,12,33,72,073,29,30,14,327,44,27,36,275,38,26,24,053,37,1*76
$GBGSV,3,2,12,25,06,157,24,24,29,106,33,14,43,082,41,09,16,050,39,1*76
$GBGSV,3,3,12,07,04,061,26,05,11,119,42,10,01,085,,28,23,215,,1*7F
$GBGSV,2,1,07,24,29,106,42,25,06,157,25,26,24,053,39,27,36,275,30,5*72
$GBGSV,2,2,07,30,14,327,34,33,72,073,45,28,23,215,,5*4F
$GIGSV,1,1,04,02,11,122,33,06,26,144,35,09,20,115,35,04,00,000,,1*73
$GNGSA,A,3,02,03,04,06,09,19,22,,,,,,0.8,0.5,0.6,1*38
$GNGSA,A,3,66,67,68,76,77,83,,,,,,,0.8,0.5,0.6,2*3C
$GNGSA,A,3,02,07,08,13,25,30,33,,,,,,0.8,0.5,0.6,3*33
$GNGSA,A,3,09,14,24,25,26,27,30,33,,,,,0.8,0.5,0.6,4*30
$GNVTG,,T,,M,0.0,N,0.0,K,A*3D
$GNRMC,102004.00,A,5200.055937,N,00422.749137,E,0.0,,191120,1.8,W,A,V*68
$GPGSV,3,1,10,02,28,309,39,03,30,101,33,04,60,067,30,06,63,260,28,1*62
$GPGSV,3,2,10,07,17,168,24,09,74,212,25,19,17,234,24,22,09,108,43,1*6A
$GPGSV,3,3,10,26,07,052,27,17,08,223,,1*69
$GPGSV,2,1,05,03,30,101,30,04,60,067,44,06,63,260,41,09,74,212,,8*62
$GPGSV,2,2,05,26,07,052,,8*5C
$GLGSV,3,1,10,66,29,066,35,82,37,215,24,77,18,120,34,76,30,064,37,1*71
$GLGSV,3,2,10,83,51,286,26,67,73,355,36,68,34,270,36,75,13,014,,1*70
$GLGSV,3,3,10,84,11,340,,81,00,000,,1*7B
$GAGSV,3,1,09,02,16,060,37,07,80,074,34,08,26,066,29,13,07,168,23,7*78
$GAGSV,3,2,09,25,07,012,27,30,07,108,34,33,47,291,40,12,07,327,,7*78
$GAGSV,3,3,09,26,47,206,,7*49
$GAGSV,3,1,09,02,16,060,38,07,80,074,45,08,26,066,38,25,07,012,26,1*7B
$GAGSV,3,2,09,30,07,108,32,33,47,291,40,12,07,327,,13,07,168,,1*74
$GAGSV,3,3,09,26,47,206,,1*4F
$GQGSV,1,1,01,-190,04,033,23,1*44
$GQGSV,1,1,01,-190,04,033,,8*4C
$GBGSV,3,1,12,33,72,073,28,30,14,327,44,27,36,275,36,26,24,053,38,1*76
$GBGSV,3,2,12,25,06,157,24,24,29,106,33,14,43,082,40,09,16,050,39,1*77
$GBGSV,3,3,12,07,04,061,26,05,11,119,40,10,01,085,,28,23,215,,1*7D
$GBGSV,2,1,07,24,29,106,41,25,06,157,25,26,24,053,39,27,36,275,33,5*72
$GBGSV,2,2,07,30,14,327,35,33,72,073,45,28,23,215,,5*4E
$GIGSV,1,1,04,02,11,122,32,06,26,144,33,09,20,115,33,04,00,000,,1*72
$GNGSA,A,3,02,03,04,06,22,,,,,,,,0.8,0.6,0.6,1*3A
$GNGSA,A,3,66,67,68,76,77,83,,,,,,,0.8,0.6,0.6,2*3F
$GNGSA,A,3,02,07,08,13,25,30,33,,,,,,0.8,0.6,0.6,3*30
$GNGSA,A,3,09,14,24,25,26,27,30,33,,,,,0.8,0.6,0.6,4*33
$GNVTG,,T,,M,0.0,N,0.0,K,A*3D
$GNRMC,102005.00,A,5200.055931,N,00422.749140,E,0.0,,191120,1.8,W,A,V*6F
$GNGGA,102005.00,5200.055931,N,00422.749140,E,1,12,0.6,-9.4,M,47.0,M,,*55
$GPGSV,3,1,10,02,28,309,39,03,30,101,35,04,60,067,31,06,63,260,23,1*6E
$GPGSV,3,2,10,07,17,168,24,09,74,212,22,19,17,234,24,22,09,108,44,1*6A
$GPGSV,3,3,10,26,07,052,27,17,08,223,,1*69
$GPGSV,2,1,05,03,30,101,33,04,60,067,45,06,63,260,42,09,74,212,,8*63
$GPGSV,2,2,05,26,07,052,,8*5C
$GLGSV,3,1,10,66,29,066,33,82,37,215,24,77,18,120,34,76,30,064,38,1*78
$GLGSV,3,2,10,83,51,286,28,67,73,355,35,68,34,270,35,75,13,014,,1*7E
$GLGSV,3,3,10,84,11,340,,81,00,000,,1*7B
$GAGSV,3,1,09,02,16,060,36,07,80,074,33,08,26,066,29,13,07,168,23,7*7E
$GAGSV,3,2,09,25,07,012,25,30,07,108,36,33,47,291,40,12,07,327,,7*78
$GAGSV,3,3,09,26,47,206,,7*49
$GAGSV,3,1,09,02,16,060,37,07,80,074,46,08,26,066,37,25,07,012,26,1*78
$GAGSV,3,2,09,30,07,108,33,33,47,291,40,12,07,327,,13,07,168,,1*75
$GAGSV,3,3,09,26,47,206,,1*4F
$GQGSV,1,1,01,-190,04,033,23,1*44
$GQGSV,1,1,01,-190,04,033,,8*4C
$GBGSV,3,1,12,33,72,073,28,30,14,327,45,27,36,275,30,26,24,053,39,1*70
$GBGSV,3,2,12,25,06,157,25,24,29,106,34,14,43,082,41,09,16,050,40,1*7E
$GBGSV,3,3,12,07,04,061,26,05,11,119,41,10,01,085,,28,23,215,,1*7C
$GBGSV,2,1,07,24,29,106,41,25,06,157,25,26,24,053,40,27,36,275,33,5*7C
$GBGSV,2,2,07,30,14,327,35,33,72,073,44,28,23,215,,5*4F
$GIGSV,1,1,04,02,11,122,30,06,26,144,33,09,20,115,34,04,00,000,,1*77
$GNGSA,A,3,02,03,04,06,22,,,,,,,,0.8,0.6,0.6,1*3A
$GNGSA,A,3,66,67,68,76,77,83,,,,,,,0.8,0.6,0.6,2*3F
$GNGSA,A,3,02,07,08,13,25,30,33,,,,,,0.8,0.6,0.6,3*30
$GNGSA,A,3,09,14,24,25,26,27,30,33,,,,,0.8,0.6,0.6,4*33
$GNVTG,,T,,M,0.0,N,0.0,K,A*3D
$GNRMC,102006.00,A,5200.055961,N,00422.749164,E,0.0,,191120,1.8,W,A,V*6F
$GNGGA,102006.00,5200.055961,N,00422.749164,E,1,12,0.6,-9.4,M,47.0,M,,*55
$GPGSV,3,1,10,02,28,309,40,03,30,101,35,04,60,067,31,06,63,260,31,1*63
$GPGSV,3,2,10,07,17,168,24,09,74,212,22,19,17,234,24,22,09,108,44,1*6A
$GPGSV,3,3,10,26,07,052,25,17,08,223,,1*6B
$GPGSV,2,1,05,03,30,101,31,04,60,067,44,06,63,260,41,09,74,212,,8*63
$GPGSV,2,2,05,26,07,052,,8*5C
$GLGSV,3,1,10,66,29,066,35,82,37,215,24,77,18,120,35,76,30,064,39,1*7E
$GLGSV,3,2,10,83,51,286,28,67,73,355,37,68,34,270,29,75,13,014,,1*71
$GLGSV,3,3,10,84,11,340,,81,00,000,,1*7B
$GAGSV,3,1,09,02,16,060,35,07,80,074,33,08,26,066,27,13,07,168,23,7*73
$GAGSV,3,2,09,25,07,012,25,30,07,108,35,33,47,291,41,12,07,327,,7*7A
$GAGSV,3,3,09,26,47,206,,7*49
$GAGSV,3,1,09,02,16,060,37,07,80,074,45,08,26,066,38,25,07,012,26,1*74
$GAGSV,3,2,09,30,07,108,34,33,47,291,40,12,07,327,,13,07,168,,1*72
$GAGSV,3,3,09,26,47,206,,1*4F
$GQGSV,1,1,01,-190,04,033,23,1*44
$GQGSV,1,1,01,-190,04,033,,8*4C
$GBGSV,3,1,12,33,72,073,28,30,14,327,44,27,36,275,34,26,24,053,39,1*75
$GBGSV,3,2,12,25,06,157,25,24,29,106,36,14,43,082,40,09,16,050,40,1*7D
$GBGSV,3,3,12,07,04,061,24,05,11,119,42,10,01,085,,28,23,215,,1*7D
$GBGSV,2,1,06,24,29,106,42,26,24,053,40,27,36,275,35,30,14,327,34,5*7A
$GBGSV,2,2,06,33,72,073,45,28,23,215,,5*79
$GIGSV,1,1,04,02,11,122,30,06,26,144,34,09,20,115,34,04,00,000,,1*70
$GNGSA,A,3,02,03,04,06,22,,,,,,,,0.9,0.6,0.6,1*3B
$GNGSA,A,3,66,67,68,76,77,83,,,,,,,0.9,0.6,0.6,2*3E
$GNGSA,A,3,02,07,08,25,30,33,,,,,,,0.9,0.6,0.6,3*33
$GNGSA,A,3,07,09,14,24,25,26,27,30,33,,,,0.9,0.6,0.6,4*35
$GNVTG,,T,,M,0.0,N,0.0,K,A*3D
$GNRMC,102007.00,A,5200.055952,N,00422.749170,E,0.0,,191120,1.8,W,A,V*6B
$GNGGA,102007.00,5200.055952,N,00422.749170,E,1,12,0.6,-9.3,M,47.0,M,,*56
$GPGSV,3,1,10,02,28,309,40,03,30,101,34,04,60,067,33,06,63,260,34,1*65
$GPGSV,3,2,10,07,17,168,24,09,74,212,24,19,17,234,24,22,09,108,44,1*6C
$GPGSV,3,3,10,26,07,052,25,17,08,223,,1*6B
$GPGSV,2,1,05,03,30,101,32,04,60,067,45,06,63,260,36,09,74,212,,8*61
$GPGSV,2,2,05,26,07,052,,8*5C
$GLGSV,3,1,10,66,29,066,34,82,37,215,24,77,18,120,34,76,30,064,37,1*70
$GLGSV,3,2,10,83,51,286,28,67,73,355,36,68,34,270,35,75,13,014,,1*7D
$GLGSV,3,3,10,84,11,340,,81,00,000,,1*7B
$GAGSV,3,1,09,02,16,060,37,07,80,074,35,08,26,066,29,13,07,168,23,7*79
$GAGSV,3,2,09,25,07,012,26,30,07,108,36,33,47,291,40,12,07,327,,7*7B
$GAGSV,3,3,09,26,47,206,,7*49
$GAGSV,3,1,09,02,16,060,38,07,80,074,45,08,26,066,37,25,07,012,26,1*74
$GAGSV,3,2,09,30,07,108,33,33,47,291,40,12,07,327,,13,07,168,,1*75
$GAGSV,3,3,09,26,47,206,,1*4F
$GQGSV,1,1,01,-190,04,033,23,1*44
$GQGSV,1,1,01,-190,04,033,,8*4C
$GBGSV,3,1,12,33,72,073,28,30,14,327,45,27,36,275,35,26,24,053,38,1*74
$GBGSV,3,2,12,25,06,157,26,24,29,106,33,14,43,082,41,09,16,050,40,1*7A
$GBGSV,3,3,12,07,04,061,25,05,11,119,42,10,01,085,,28,23,215,,1*7C
$GBGSV,2,1,07,24,29,106,42,26,24,053,40,27,36,275,27,30,14,327,35,5*79
$GBGSV,2,2,07,33,72,073,44,25,06,157,,28,23,215,,5*4B
$GIGSV,1,1,04,02,11,122,31,06,26,144,34,09,20,115,34,04,00,000,,1*71
$GNGSA,A,3,02,03,04,06,22,,,,,,,,0.9,0.6,0.6,1*3B
$GNGSA,A,3,66,67,68,76,77,83,,,,,,,0.9,0.6,0.6,2*3E
$GNGSA,A,3,02,07,08,25,30,33,,,,,,,0.9,0.6,0.6,3*33
$GNGSA,A,3,07,09,14,24,25,26,27,30,33,,,,0.9,0.6,0.6,4*35
$GNVTG,,T,,M,0.0,N,0.0,K,A*3D
$GNRMC,102008.00,A,5200.056007,N,00422.749199,E,0.0,,191120,1.8,W,A,V*69
$GNGGA,102008.00,5200.056007,N,00422.749199,E,1,12,0.6,-9.2,M,47.0,M,,*55
$GPGSV,3,1,10,02,28,309,40,03,30,101,34,04,60,067,36,06,63,260,35,1*61
$GPGSV,3,2,10,07,17,168,24,09,74,212,24,19,17,234,24,22,09,108,43,1*6B
$GPGSV,3,3,10,26,07,052,24,17,08,223,,1*6A
$GPGSV,2,1,05,03,30,101,28,04,60,067,43,06,63,260,35,09,74,212,,8*6F
$GPGSV,2,2,05,26,07,052,,8*5C
$GLGSV,3,1,10,66,29,066,37,82,37,215,24,77,18,120,35,76,30,064,39,1*7C
