$GPGSV,3,1,11,02,41,255,40,04,14,074,29,05,35,299,38,06,25,201,41,1*63
$GPGSV,3,2,11,07,63,136,39,09,52,074,34,16,15,039,33,29,08,320,37,1*6C
$GPGSV,3,3,11,30,43,181,44,13,05,251,,26,00,000,,1*5D
$GLGSV,3,1,10,78,41,136,,77,43,054,,76,06,016,,79,03,172,,1*7A
$GLGSV,3,2,10,69,31,293,,84,33,286,,83,12,227,,85,14,345,,1*78
$GLGSV,3,3,10,67,33,090,,68,73,009,,1*72
$GAGSV,3,1,09,02,11,025,34,12,30,300,30,19,31,271,36,26,05,195,35,7*7B
$GAGSV,3,2,09,27,23,135,37,30,33,074,25,33,32,239,34,07,42,084,,7*78
$GAGSV,3,3,09,11,02,343,,7*4C
$GBGSV,4,1,13,27,07,237,44,24,33,056,41,23,15,180,42,05,11,119,,1*73
$GBGSV,4,2,13,07,18,052,,09,02,067,,10,22,078,,14,05,109,,1*77
$GBGSV,4,3,13,25,49,135,,29,08,337,,30,16,286,,32,36,289,,1*75
$GBGSV,4,4,13,33,30,109,,1*4F
$GNGSA,A,3,02,04,05,06,07,09,13,16,29,,,,0.7,0.4,0.6,1*31
$GNGSA,A,3,67,68,69,76,78,83,84,85,,,,,0.7,0.4,0.6,2*33
$GNGSA,A,3,02,07,12,19,26,27,30,33,,,,,0.7,0.4,0.6,3*3A
$GNGSA,A,3,07,10,14,24,25,27,29,30,32,33,,,0.7,0.4,0.6,4*3F
$GNVTG,,T,,M,0.0,N,0.0,K,A*3D
$GNRMC,121010.08,A,5159.367959,N,00422.977007,E,0.0,,191120,1.8,W,A,V*60
$GNGGA,121010.08,5159.367959,N,00422.977007,E,1,12,0.4,0.4,M,47.0,M,,*7C
$GPGSV,3,1,11,02,41,255,40,04,14,074,29,05,35,299,36,06,25,201,42,1*6E
$GPGSV,3,2,11,07,63,136,38,09,52,074,32,16,15,039,32,29,08,320,36,1*6B
$GPGSV,3,3,11,30,43,181,44,13,05,251,,26,00,000,,1*5D
$GLGSV,3,1,10,79,03,172,42,78,41,136,,77,43,054,,76,06,016,,1*7C
$GLGSV,3,2,10,69,31,293,,84,33,286,,83,12,227,,85,14,345,,1*78
$GLGSV,3,3,10,67,33,090,,68,73,009,,1*72
$GAGSV,3,1,09,02,11,025,30,12,30,300,29,19,31,271,36,26,05,195,34,7*76
$GAGSV,3,2,09,27,23,135,35,30,33,074,24,33,32,239,33,07,42,084,,7*7C
$GAGSV,3,3,09,11,02,343,,7*4C
$GBGSV,4,1,13,33,30,109,32,32,36,289,38,30,16,286,37,29,08,337,41,1*7A
$GBGSV,4,2,13,27,07,237,43,25,49,135,39,24,33,056,38,23,15,180,42,1*72
$GBGSV,4,3,13,10,22,078,29,09,02,067,38,07,18,052,31,05,11,119,,1*70
$GBGSV,4,4,13,14,05,109,,1*4C
$GNGSA,A,3,02,04,05,06,07,09,13,16,29,,,,0.7,0.4,0.6,1*31
$GNGSA,A,3,67,68,69,76,78,83,84,85,,,,,0.7,0.4,0.6,2*33
$GNGSA,A,3,02,07,12,19,26,27,30,33,,,,,0.7,0.4,0.6,3*3A
$GNGSA,A,3,07,10,14,24,25,27,29,30,32,33,,,0.7,0.4,0.6,4*3F
$GNVTG,,T,,M,0.0,N,0.0,K,A*3D
$GNRMC,121011.00,A,5159.367997,N,00422.977110,E,0.0,,191120,1.8,W,A,V*6C
$GNGGA,121011.00,5159.367997,N,00422.977110,E,1,12,0.4,0.1,M,47.0,M,,*75
$GPGSV,3,1,11,02,41,255,38,04,14,074,29,05,35,299,37,06,25,201,42,1*60
$GPGSV,3,2,11,07,63,136,37,09,52,074,35,16,15,039,36,29,08,320,35,1*64
$GPGSV,3,3,11,30,43,181,44,13,05,251,,26,00,000,,1*5D
$GLGSV,3,1,10,79,03,172,42,78,41,136,,77,43,054,,76,06,016,,1*7C
$GLGSV,3,2,10,69,31,293,,84,33,286,,83,12,227,,85,14,345,,1*78
$GLGSV,3,3,10,67,33,090,,68,73,009,,1*72
$GAGSV,3,1,09,02,11,025,32,12,30,300,34,19,31,271,35,26,05,195,34,7*7B
$GAGSV,3,2,09,27,23,135,35,30,33,074,24,33,32,239,33,07,42,084,,7*7C
$GAGSV,3,3,09,11,02,343,,7*4C
$GBGSV,4,1,13,33,30,109,36,32,36,289,38,30,16,286,36,29,08,337,43,1*7D
$GBGSV,4,2,13,27,07,237,44,25,49,135,36,24,33,056,36,23,15,180,44,1*72
$GBGSV,4,3,13,10,22,078,29,09,02,067,37,07,18,052,31,05,11,119,,1*7F
$GBGSV,4,4,13,14,05,109,,1*4C
$GNGSA,A,3,02,04,05,06,07,09,13,16,29,,,,0.7,0.4,0.6,1*31
$GNGSA,A,3,67,68,69,76,78,83,84,85,,,,,0.7,0.4,0.6,2*33
$GNGSA,A,3,02,07,12,19,26,27,30,33,,,,,0.7,0.4,0.6,3*3A
$GNGSA,A,3,07,10,14,24,25,27,29,30,32,33,,,0.7,0.4,0.6,4*3F
$GNVTG,,T,,M,0.0,N,0.0,K,A*3D
$GNRMC,121012.00,A,5159.368064,N,00422.977182,E,0.0,,191120,1.8,W,A,V*6E
$GNGGA,121012.00,5159.368064,N,00422.977182,E,1,12,0.4,-0.2,M,47.0,M,,*59
$GPGSV,3,1,11,02,41,255,39,04,14,074,37,05,35,299,32,06,25,201,42,1*6B
$GPGSV,3,2,11,07,63,136,41,09,52,074,42,13,05,251,34,16,15,039,35,1*64
$GPGSV,3,3,11,29,08,320,40,30,43,181,43,26,00,000,,1*5D
$GLGSV,3,1,10,78,41,136,41,76,06,016,26,79,03,172,42,69,31,293,45,1*7F
$GLGSV,3,2,10,84,33,286,32,83,12,227,30,85,14,345,36,67,33,090,41,1*77
$GLGSV,3,3,10,68,73,009,29,77,43,054,,1*77
$GAGSV,3,1,09,02,11,025,33,07,42,084,42,12,30,300,34,19,31,271,31,7*7E
$GAGSV,3,2,09,26,05,195,37,27,23,135,37,30,33,074,39,33,32,239,39,7*7D
$GAGSV,3,3,09,11,02,343,,7*4C
$GBGSV,4,1,13,33,30,109,37,32,36,289,34,30,16,286,33,29,08,337,42,1*74
$GBGSV,4,2,13,27,07,237,44,25,49,135,39,24,33,056,36,23,15,180,43,1*7A
$GBGSV,4,3,13,14,05,109,35,10,22,078,40,09,02,067,40,07,18,052,28,1*7A
$GBGSV,4,4,13,05,11,119,32,1*49
$GNGSA,A,3,02,04,05,06,07,09,13,16,29,,,,0.7,0.4,0.6,1*31
$GNGSA,A,3,67,68,69,76,78,83,84,85,,,,,0.7,0.4,0.6,2*33
$GNGSA,A,3,02,07,12,19,26,27,30,33,,,,,0.7,0.4,0.6,3*3A
$GNGSA,A,3,07,10,14,24,25,27,29,30,32,33,,,0.7,0.4,0.6,4*3F
$GNVTG,,T,,M,0.0,N,0.0,K,A*3D
$GNRMC,121013.00,A,5159.368077,N,00422.977378,E,0.0,,191120,1.8,W,A,V*6A
$GNGGA,121013.00,5159.368077,N,00422.977378,E,1,12,0.4,0.1,M,47.0,M,,*73
$GPGSV,3,1,11,02,41,255,38,04,14,074,39,05,35,299,33,06,25,201,42,1*65
$GPGSV,3,2,11,07,63,136,42,09,52,074,42,13,05,251,34,16,15,039,39,1*6B
$GPGSV,3,3,11,29,08,320,41,30,43,181,43,26,00,000,,1*5C
$GLGSV,3,1,10,78,41,136,42,77,43,054,20,76,06,016,26,79,03,172,39,1*70
$GLGSV,3,2,10,69,31,293,45,84,33,286,32,83,12,227,28,85,14,345,38,1*79
$GLGSV,3,3,10,67,33,090,41,68,73,009,28,1*7D
$GAGSV,3,1,09,02,11,025,26,07,42,084,43,12,30,300,36,19,31,271,29,7*70
$GAGSV,3,2,09,26,05,195,36,27,23,135,37,30,33,074,39,33,32,239,38,7*7D
$GAGSV,3,3,09,11,02,343,,7*4C
$GBGSV,4,1,13,33,30,109,36,32,36,289,34,30,16,286,36,29,08,337,41,1*73
$GBGSV,4,2,13,27,07,237,45,25,49,135,42,24,33,056,34,23,15,180,41,1*77
$GBGSV,4,3,13,14,05,109,34,10,22,078,41,09,02,067,39,07,18,052,29,1*75
$GBGSV,4,4,13,05,11,119,28,1*42
$GNGSA,A,3,02,04,05,06,07,09,13,16,29,,,,0.7,0.4,0.6,1*31
$GNGSA,A,3,67,68,69,76,77,78,83,84,85,,,,0.7,0.4,0.6,2*33
$GNGSA,A,3,02,07,12,19,26,27,30,33,,,,,0.7,0.4,0.6,3*3A
$GNGSA,A,3,07,10,14,24,25,27,29,30,32,33,,,0.7,0.4,0.6,4*3F
$GNVTG,,T,,M,0.0,N,0.0,K,A*3D
$GNRMC,121014.00,A,5159.367870,N,00422.977444,E,0.0,,191120,1.8,W,A,V*65
$GNGGA,121014.00,5159.367870,N,00422.977444,E,1,12,0.4,-0.2,M,47.0,M,,*52
$GPGSV,3,1,11,02,41,255,41,04,14,074,39,05,35,299,33,06,25,201,43,1*6A
$GPGSV,3,2,11,07,63,136,43,09,52,074,42,13,05,251,35,16,15,039,39,1*6B
$GPGSV,3,3,11,29,08,320,35,30,43,181,43,26,00,000,,1*5F
$GLGSV,3,1,10,78,41,136,43,77,43,054,20,76,06,016,26,79,03,172,37,1*7F
$GLGSV,3,2,10,69,31,293,44,84,33,286,33,83,12,227,29,85,14,345,38,1*78
$GLGSV,3,3,10,67,33,090,42,68,73,009,25,1*73
$GAGSV,3,1,09,02,11,025,26,07,42,084,44,12,30,300,33,19,31,271,33,7*79
$GAGSV,3,2,09,26,05,195,38,27,23,135,35,30,33,074,37,33,32,239,39,7*7E
$GAGSV,3,3,09,11,02,343,,7*4C
$GBGSV,4,1,13,33,30,109,36,32,36,289,36,30,16,286,36,29,08,337,43,1*73
$GBGSV,4,2,13,27,07,237,44,25,49,135,42,24,33,056,32,23,15,180,42,1*73
$GBGSV,4,3,13,14,05,109,34,10,22,078,42,09,02,067,36,07,18,052,32,1*73
$GBGSV,4,4,13,05,11,119,29,1*43
$GNGSA,A,3,02,04,05,06,07,09,13,16,29,,,,0.7,0.4,0.6,1*31
$GNGSA,A,3,67,68,69,76,77,78,83,84,85,,,,0.7,0.4,0.6,2*33
$GNGSA,A,3,02,07,12,19,26,27,30,33,,,,,0.7,0.4,0.6,3*3A
$GNGSA,A,3,07,10,14,24,25,27,29,30,32,33,,,0.7,0.4,0.6,4*3F
$GNVTG,,T,,M,0.0,N,0.0,K,A*3D
$GNRMC,121015.00,A,5159.367845,N,00422.977343,E,0.0,,191120,1.8,W,A,V*62
$GNGGA,121015.00,5159.367845,N,00422.977343,E,1,12,0.4,-0.5,M,47.0,M,,*52
$GPGSV,3,1,11,02,41,255,42,04,14,074,39,05,35,299,33,06,25,201,43,1*69
$GPGSV,3,2,11,07,63,136,42,09,52,074,43,13,05,251,35,16,15,039,38,1*6A
$GPGSV,3,3,11,29,08,320,32,30,43,181,43,26,00,000,,1*58
$GLGSV,3,1,10,78,41,136,43,77,43,054,20,76,06,016,26,79,03,172,38,1*70
$GLGSV,3,2,10,69,31,293,44,84,33,286,33,83,12,227,30,85,14,345,36,1*7E
$GLGSV,3,3,10,67,33,090,43,68,73,009,27,1*70
$GAGSV,3,1,09,02,11,025,24,07,42,084,44,12,30,300,30,19,31,271,34,7*7F
$GAGSV,3,2,09,26,05,195,38,27,23,135,33,30,33,074,36,33,32,239,38,7*78
$GAGSV,3,3,09,11,02,343,,7*4C
$GQGSV,1,1,01,-190,02,030,18,1*49
$GBGSV,4,1,13,33,30,109,34,32,36,289,35,30,16,286,35,29,08,337,43,1*71
$GBGSV,4,2,13,27,07,237,43,25,49,135,42,24,33,056,30,23,15,180,42,1*76
$GBGSV,4,3,13,14,05,109,31,10,22,078,42,09,02,067,35,07,18,052,34,1*73
$GBGSV,4,4,13,05,11,119,30,1*4B
$GNGSA,A,3,02,04,05,06,07,09,13,16,29,,,,0.7,0.4,0.6,1*31
$GNGSA,A,3,67,68,69,76,77,78,83,84,85,,,,0.7,0.4,0.6,2*33
$GNGSA,A,3,02,07,12,19,26,27,30,33,,,,,0.7,0.4,0.6,3*3A
$GNGSA,A,3,07,10,14,24,25,27,29,30,32,33,,,0.7,0.4,0.6,4*3F
$GNVTG,,T,,M,0.0,N,0.0,K,A*3D
$GNRMC,121016.00,A,5159.367859,N,00422.977350,E,0.0,,191120,1.8,W,A,V*6E
$GNGGA,121016.00,5159.367859,N,00422.977350,E,1,12,0.4,-0.5,M,47.0,M,,*5E
$GPGSV,3,1,11,02,41,255,40,04,14,074,40,05,35,299,35,06,25,201,44,1*64
$GPGSV,3,2,11,07,63,136,42,09,52,074,41,13,05,251,35,16,15,039,39,1*69
$GPGSV,3,3,11,29,08,320,35,30,43,181,43,26,00,000,,1*5F
$GLGSV,3,1,10,78,41,136,43,77,43,054,18,76,06,016,21,79,03,172,39,1*7D
$GLGSV,3,2,10,69,31,293,44,84,33,286,34,83,12,227,27,85,14,345,36,1*7F
$GLGSV,3,3,10,67,33,090,41,68,73,009,31,1*75
$GAGSV,3,1,09,02,11,025,28,07,42,084,43,12,30,300,29,19,31,271,37,7*7F
$GAGSV,3,2,09,26,05,195,38,27,23,135,33,30,33,074,35,33,32,239,37,7*74
$GAGSV,3,3,09,11,02,343,,7*4C
$GBGSV,4,1,13,33,30,109,37,32,36,289,37,30,16,286,37,29,08,337,44,1*75
$GBGSV,4,2,13,27,07,237,38,25,49,135,44,24,33,056,30,23,15,180,42,1*7C
$GBGSV,4,3,13,14,05,109,30,10,22,078,41,09,02,067,37,07,18,052,34,1*73
$GBGSV,4,4,13,05,11,119,30,1*4B
$GNGSA,A,3,02,04,05,06,07,09,13,16,29,,,,0.7,0.4,0.6,1*31
$GNGSA,A,3,67,68,69,76,77,78,83,84,85,,,,0.7,0.4,0.6,2*33
$GNGSA,A,3,02,07,12,19,26,27,30,33,,,,,0.7,0.4,0.6,3*3A
$GNGSA,A,3,07,10,14,24,25,27,29,30,32,33,,,0.7,0.4,0.6,4*3F
$GNVTG,,T,,M,0.0,N,0.0,K,A*3D
$GNRMC,121017.00,A,5159.367884,N,00422.977029,E,0.0,,191120,1.8,W,A,V*62
$GNGGA,121017.00,5159.367884,N,00422.977029,E,1,12,0.4,-0.5,M,47.0,M,,*52
$GPGSV,3,1,11,02,41,255,40,04,14,074,41,05,35,299,37,06,25,201,43,1*60
$GPGSV,3,2,11,07,63,136,42,09,52,074,41,13,05,251,35,16,15,039,39,1*69
$GPGSV,3,3,11,29,08,320,37,30,43,181,44,26,00,000,,1*5A
$GLGSV,3,1,10,78,41,136,43,77,43,054,18,76,06,016,31,79,03,172,39,1*7C
$GLGSV,3,2,10,69,31,293,45,84,33,286,35,83,12,227,24,85,14,345,35,1*7F
$GLGSV,3,3,10,67,33,090,40,68,73,009,30,1*75
$GAGSV,3,1,09,02,11,025,32,07,42,084,43,12,30,300,26,19,31,271,38,7*74
$GAGSV,3,2,09,26,05,195,37,27,23,135,33,30,33,074,33,33,32,239,37,7*7D
$GAGSV,3,3,09,11,02,343,,7*4C
$GBGSV,4,1,13,33,30,109,35,32,36,289,38,30,16,286,35,29,08,337,44,1*7A
$GBGSV,4,2,13,27,07,237,36,25,49,135,44,24,33,056,28,23,15,180,42,1*7B
$GBGSV,4,3,13,14,05,109,24,10,22,078,41,09,02,067,38,07,18,052,32,1*7F
$GBGSV,4,4,13,05,11,119,30,1*4B
$GNGSA,A,3,02,04,05,06,07,09,13,16,29,,,,0.7,0.4,0.6,1*31
$GNGSA,A,3,67,68,69,76,77,78,83,84,85,,,,0.7,0.4,0.6,2*33
$GNGSA,A,3,02,07,12,19,26,27,30,33,,,,,0.7,0.4,0.6,3*3A
$GNGSA,A,3,07,10,14,24,25,27,29,30,32,33,,,0.7,0.4,0.6,4*3F
$GNVTG,,T,,M,0.0,N,0.0,K,A*3D
$GNRMC,121018.00,A,5159.367895,N,00422.976994,E,0.0,,191120,1.8,W,A,V*63
$GNGGA,121018.00,5159.367895,N,00422.976994,E,1,12,0.4,-0.9,M,47.0,M,,*5F
$GPGSV,3,1,11,02,41,255,41,04,14,074,38,05,35,299,38,06,25,201,43,1*60
$GPGSV,3,2,11,07,63,136,42,09,52,074,40,13,05,251,35,16,15,039,39,1*68
$GPGSV,3,3,11,29,08,320,37,30,43,181,44,26,00,000,,1*5A
$GLGSV,3,1,10,78,41,136,43,77,43,054,18,76,06,016,26,79,03,172,41,1*75
$GLGSV,3,2,10,69,31,293,43,84,33,286,34,83,12,227,25,85,14,345,35,1*79
$GLGSV,3,3,10,67,33,090,40,68,73,009,34,1*71
$GAGSV,3,1,09,02,11,025,27,07,42,084,42,12,30,300,30,19,31,271,40,7*79
$GAGSV,3,2,09,26,05,195,36,27,23,135,29,30,33,074,36,33,32,239,40,7*72
$GAGSV,3,3,09,11,02,343,,7*4C
$GBGSV,4,1,13,33,30,109,34,32,36,289,37,30,16,286,38,29,08,337,42,1*7F
$GBGSV,4,2,13,27,07,237,39,25,49,135,44,24,33,056,31,23,15,180,41,1*7F
$GBGSV,4,3,13,14,05,109,26,10,22,078,41,09,02,067,38,07,18,052,35,1*7A
$GBGSV,4,4,13,05,11,119,29,1*43
$GNGSA,A,3,02,04,05,06,07,09,13,16,29,,,,0.7,0.4,0.6,1*31
$GNGSA,A,3,67,68,69,76,77,78,83,84,85,,,,0.7,0.4,0.6,2*33
$GNGSA,A,3,02,07,12,19,26,27,30,33,,,,,0.7,0.4,0.6,3*3A
$GNGSA,A,3,07,10,14,24,25,27,29,30,32,33,,,0.7,0.4,0.6,4*3F
$GNVTG,,T,,M,0.0,N,0.0,K,A*3D
$GNRMC,121019.00,A,5159.367925,N,00422.976978,E,0.0,,191120,1.8,W,A,V*6A
$GNGGA,121019.00,5159.367925,N,00422.976978,E,1,12,0.4,-0.4,M,47.0,M,,*5B
$GPGSV,3,1,11,02,41,255,41,04,14,074,39,05,35,299,32,06,25,201,42,1*6A
$GPGSV,3,2,11,07,63,136,42,09,52,074,41,13,05,251,40,16,15,039,39,1*6B
$GPGSV,3,3,11,29,08,320,38,30,43,181,44,26,00,000,,1*55
$GLGSV,3,1,10,78,41,136,44,77,43,054,18,76,06,016,26,79,03,172,38,1*7C
$GLGSV,3,2,10,69,31,293,45,84,33,286,34,83,12,227,26,85,14,345,32,1*7B
$GLGSV,3,3,10,67,33,090,40,68,73,009,27,1*73
$GAGSV,3,1,09,02,11,025,34,07,42,084,42,12,30,300,33,19,31,271,38,7*77
$GAGSV,3,2,09,26,05,195,35,27,23,135,36,30,33,074,38,33,32,239,40,7*71
$GAGSV,3,3,09,11,02,343,,7*4C
$GBGSV,4,1,13,33,30,109,32,32,36,289,32,30,16,286,35,29,08,337,41,1*72
$GBGSV,4,2,13,27,07,237,42,25,49,135,45,24,33,056,33,23,15,180,41,1*70
$GBGSV,4,3,13,14,05,109,34,10,22,078,42,09,02,067,39,07,18,052,32,1*7C
$GBGSV,4,4,13,05,11,119,29,1*43
$GNGSA,A,3,02,04,05,06,07,09,13,16,29,,,,0.7,0.4,0.6,1*31
$GNGSA,A,3,67,68,69,76,77,78,83,84,85,,,,0.7,0.4,0.6,2*33
$GNGSA,A,3,02,07,12,19,26,27,30,33,,,,,0.7,0.4,0.6,3*3A
$GNGSA,A,3,07,10,14,24,25,27,29,30,32,33,,,0.7,0.4,0.6,4*3F
$GNVTG,,T,,M,0.0,N,0.0,K,A*3D
$GNRMC,121020.00,A,5159.367901,N,00422.976985,E,0.0,,191120,1.8,W,A,V*64
$GNGGA,121020.00,5159.367901,N,00422.976985,E,1,12,0.4,-0.4,M,47.0,M,,*55
$GPGSV,3,1,11,02,41,255,41,04,14,074,40,05,35,299,35,06,25,201,40,1*61
$GPGSV,3,2,11,07,63,136,41,09,52,074,42,13,05,251,39,16,15,039,38,1*64
$GPGSV,3,3,11,29,08,320,37,30,43,181,43,26,00,000,,1*5D
$GLGSV,3,1,10,78,41,136,43,77,43,054,18,76,06,016,25,79,03,172,38,1*78
$GLGSV,3,2,10,69,31,293,45,84,33,286,35,83,12,227,28,85,14,345,31,1*77
$GLGSV,3,3,10,67,33,090,39,68,73,009,25,1*7F
$GAGSV,3,1,09,02,11,025,33,07,42,084,41,12,30,300,34,19,31,271,37,7*7B
$GAGSV,3,2,09,26,05,195,32,27,23,135,36,30,33,074,39,33,32,239,40,7*77
$GAGSV,3,3,09,11,02,343,,7*4C
$GBGSV,4,1,13,33,30,109,34,32,36,289,35,30,16,286,37,29,08,337,40,1*70
$GBGSV,4,2,13,27,07,237,44,25,49,135,45,24,33,056,28,23,15,180,40,1*7D
$GBGSV,4,3,13,14,05,109,34,10,22,078,41,09,02,067,36,07,18,052,33,1*71
$GBGSV,4,4,13,05,11,119,29,1*43
$GNGSA,A,3,02,04,05,06,07,09,13,16,29,,,,0.7,0.4,0.6,1*31
$GNGSA,A,3,67,68,69,76,77,78,83,84,85,,,,0.7,0.4,0.6,2*33
$GNGSA,A,3,02,07,12,19,26,27,30,33,,,,,0.7,0.4,0.6,3*3A
$GNGSA,A,3,07,10,14,24,25,27,29,30,32,33,,,0.7,0.4,0.6,4*3F
$GNVTG,,T,,M,0.0,N,0.0,K,A*3D
$GNRMC,121021.00,A,5159.367904,N,00422.977022,E,0.0,,191120,1.8,W,A,V*65
$GNGGA,121021.00,5159.367904,N,00422.977022,E,1,12,0.4,-0.4,M,47.0,M,,*54
$GPGSV,3,1,11,02,41,255,45,04,14,074,38,05,35,299,34,06,25,201,41,1*6A
$GPGSV,3,2,11,07,63,136,42,09,52,074,40,13,05,251,40,16,15,039,38,1*6B
$GPGSV,3,3,11,29,08,320,40,30,43,181,43,26,00,000,,1*5D
$GLGSV,3,1,10,78,41,136,44,77,43,054,18,76,06,016,27,79,03,172,40,1*72
$GLGSV,3,2,10,69,31,293,46,84,33,286,35,83,12,227,29,85,14,345,36,1*72
$GLGSV,3,3,10,67,33,090,33,68,73,009,31,1*70
$GAGSV,3,1,09,02,11,025,35,07,42,084,39,12,30,300,35,19,31,271,38,7*7C
$GAGSV,3,2,09,26,05,195,36,27,23,135,38,30,33,074,35,33,32,239,42,7*73
$GAGSV,3,3,09,11,02,343,,7*4C
$GBGSV,4,1,13,33,30,109,38,32,36,289,32,30,16,286,37,29,08,337,39,1*75
$GBGSV,4,2,13,27,07,237,42,25,49,135,46,24,33,056,31,23,15,180,41,1*71
$GBGSV,4,3,13,14,05,109,34,10,22,078,40,09,02,067,39,07,18,052,28,1*75
$GBGSV,4,4,13,05,11,119,28,1*42
$GNGSA,A,3,02,04,05,06,07,09,13,16,29,,,,0.7,0.4,0.6,1*31
$GNGSA,A,3,67,68,69,76,77,78,83,84,85,,,,0.7,0.4,0.6,2*33
$GNGSA,A,3,02,07,12,19,26,27,30,33,,,,,0.7,0.4,0.6,3*3A
$GNGSA,A,3,07,10,14,24,25,27,29,30,32,33,,,0.7,0.4,0.6,4*3F
$GNVTG,,T,,M,0.0,N,0.0,K,A*3D
$GNRMC,121022.00,A,5159.367898,N,00422.977052,E,0.0,,191120,1.8,W,A,V*65
$GNGGA,121022.00,5159.367898,N,00422.977052,E,1,12,0.4,-0.3,M,47.0,M,,*53
$GPGSV,3,1,11,02,41,255,45,04,14,074,38,05,35,299,35,06,25,201,43,1*69
$GPGSV,3,2,11,07,63,136,41,09,52,074,41,13,05,251,41,16,15,039,37,1*67
$GPGSV,3,3,11,29,08,320,42,30,43,181,44,26,00,000,,1*58
$GLGSV,3,1,10,78,41,136,43,77,43,054,18,76,06,016,30,79,03,172,38,1*7C
$GLGSV,3,2,10,69,31,293,46,84,33,286,34,83,12,227,29,85,14,345,34,1*71
$GLGSV,3,3,10,67,33,090,38,68,73,009,30,1*7A
$GAGSV,3,1,09,02,11,025,36,07,42,084,41,12,30,300,32,19,31,271,38,7*77
$GAGSV,3,2,09,26,05,195,36,27,23,135,35,30,33,074,36,33,32,239,40,7*7F
$GAGSV,3,3,09,11,02,343,,7*4C
$GBGSV,4,1,13,33,30,109,35,32,36,289,31,30,16,286,35,29,08,337,40,1*77
$GBGSV,4,2,13,27,07,237,41,25,49,135,44,24,33,056,29,23,15,180,42,1*7A
$GBGSV,4,3,13,14,05,109,33,10,22,078,40,09,02,067,39,07,18,052,28,1*72
$GBGSV,4,4,13,05,11,119,32,1*49
$GNGSA,A,3,02,04,05,06,07,09,13,16,29,,,,0.7,0.4,0.6,1*31
$GNGSA,A,3,67,68,69,76,77,78,83,84,85,,,,0.7,0.4,0.6,2*33
$GNGSA,A,3,02,07,12,19,26,27,30,33,,,,,0.7,0.4,0.6,3*3A
$GNGSA,A,3,07,10,14,24,25,27,29,30,32,33,,,0.7,0.4,0.6,4*3F
$GNVTG,,T,,M,0.0,N,0.0,K,A*3D
$GNRMC,121023.00,A,5159.367895,N,00422.977062,E,0.0,,191120,1.8,W,A,V*6A
$GNGGA,121023.00,5159.367895,N,00422.977062,E,1,12,0.4,-0.3,M,47.0,M,,*5C
$GPGSV,3,1,11,02,41,255,43,04,14,074,39,05,35,299,34,06,25,201,42,1*6E
$GPGSV,3,2,11,07,63,136,43,09,52,074,41,13,05,251,41,16,15,039,36,1*64
$GPGSV,3,3,11,29,08,320,39,30,43,181,43,26,00,000,,1*53
$GLGSV,3,1,10,78,41,136,45,77,43,054,18,76,06,016,31,79,03,172,37,1*74
$GLGSV,3,2,10,69,31,293,44,84,33,286,34,83,12,227,26,85,14,345,31,1*79
$GLGSV,3,3,10,67,33,090,43,68,73,009,32,1*74
$GAGSV,3,1,09,02,11,025,35,07,42,084,43,12,30,300,32,19,31,271,36,7*78
$GAGSV,3,2,09,26,05,195,32,27,23,135,38,30,33,074,37,33,32,239,37,7*77
$GAGSV,3,3,09,11,02,343,,7*4C
$GBGSV,4,1,13,33,30,109,35,32,36,289,31,30,16,286,36,29,08,337,42,1*76
$GBGSV,4,2,13,27,07,237,39,25,49,135,46,24,33,056,30,23,15,180,38,1*72
$GBGSV,4,3,13,14,05,109,36,10,22,078,41,09,02,067,40,07,18,052,31,1*70
$GBGSV,4,4,13,05,11,119,34,1*4F
$GNGSA,A,3,02,04,05,06,07,09,13,16,29,,,,0.7,0.4,0.6,1*31
$GNGSA,A,3,67,68,69,76,77,78,83,84,85,,,,0.7,0.4,0.6,2*33
$GNGSA,A,3,02,07,12,19,26,27,30,33,,,,,0.7,0.4,0.6,3*3A
$GNGSA,A,3,07,10,14,24,25,27,29,30,32,33,,,0.7,0.4,0.6,4*3F
$GNVTG,,T,,M,0.0,N,0.0,K,A*3D
$GNRMC,121024.00,A,5159.367892,N,00422.977061,E,0.0,,191120,1.8,W,A,V*69
$GNGGA,121024.00,5159.367892,N,00422.977061,E,1,12,0.4,-0.3,M,47.0,M,,*5F
$GPGSV,3,1,11,02,41,255,44,04,14,074,39,05,35,299,32,06,25,201,41,1*6C
$GPGSV,3,2,11,07,63,136,42,09,52,074,40,13,05,251,40,16,15,039,35,1*66
$GPGSV,3,3,11,29,08,320,38,30,43,181,44,26,00,000,,1*55
$GLGSV,3,1,10,78,41,136,46,77,43,054,18,76,06,016,29,79,03,172,37,1*7E
$GLGSV,3,2,10,69,31,293,44,84,33,286,33,83,12,227,22,85,14,345,28,1*72
$GLGSV,3,3,10,67,33,090,44,68,73,009,33,1*72
$GAGSV,3,1,09,02,11,025,33,07,42,084,43,12,30,300,32,19,31,271,35,7*7D
$GAGSV,3,2,09,26,05,195,29,27,23,135,39,30,33,074,38,33,32,239,37,7*73
$GAGSV,3,3,09,11,02,343,,7*4C
$GBGSV,4,1,13,33,30,109,34,32,36,289,26,30,16,286,36,29,08,337,39,1*7D
$GBGSV,4,2,13,27,07,237,38,25,49,135,48,24,33,056,28,23,15,180,36,1*7A
$GBGSV,4,3,13,14,05,109,35,10,22,078,41,09,02,067,41,07,18,052,31,1*72
$GBGSV,4,4,13,05,11,119,32,1*49
$GNGSA,A,3,02,04,05,06,07,09,13,16,29,,,,0.7,0.4,0.6,1*31
$GNGSA,A,3,67,68,69,76,77,78,83,84,85,,,,0.7,0.4,0.6,2*33
$GNGSA,A,3,02,07,12,19,26,27,30,33,,,,,0.7,0.4,0.6,3*3A
$GNGSA,A,3,07,10,14,24,25,27,29,30,32,33,,,0.7,0.4,0.6,4*3F
$GNVTG,,T,,M,0.0,N,0.0,K,A*3D
$GNRMC,121025.00,A,5159.367890,N,00422.977059,E,0.0,,191120,1.8,W,A,V*61
$GNGGA,121025.00,5159.367890,N,00422.977059,E,1,12,0.4,-0.3,M,47.0,M,,*57
$GPGSV,3,1,11,02,41,255,42,04,14,074,40,05,35,299,32,06,25,201,41,1*64
$GPGSV,3,2,11,07,63,136,42,09,52,074,41,13,05,251,37,16,15,039,35,1*67
$GPGSV,3,3,11,29,08,320,33,30,43,181,44,26,00,000,,1*5E
$GLGSV,3,1,10,78,41,136,46,77,43,054,17,76,06,016,31,79,03,172,41,1*79
$GLGSV,3,2,10,69,31,293,43,84,33,286,33,83,12,227,23,85,14,345,27,1*7B
$GLGSV,3,3,10,67,33,090,43,68,73,009,33,1*75
$GAGSV,3,1,09,02,11,025,33,07,42,084,44,12,30,300,32,19,31,271,36,7*79
$GAGSV,3,2,09,26,05,195,34,27,23,135,36,30,33,074,40,33,32,239,35,7*7D
$GAGSV,3,3,09,11,02,343,,7*4C
$GBGSV,4,1,13,33,30,109,33,32,36,289,30,30,16,286,37,29,08,337,37,1*72
$GBGSV,4,2,13,27,07,237,36,25,49,135,48,24,33,056,30,23,15,180,40,1*7C
$GBGSV,4,3,13,14,05,109,35,10,22,078,41,09,02,067,40,07,18,052,33,1*71
$GBGSV,4,4,13,05,11,119,32,1*49
$GNGSA,A,3,02,04,05,06,07,09,13,16,29,,,,0.7,0.4,0.6,1*31
$GNGSA,A,3,67,68,69,76,77,78,83,84,85,,,,0.7,0.4,0.6,2*33
$GNGSA,A,3,02,07,12,19,26,27,30,33,,,,,0.7,0.4,0.6,3*3A
$GNGSA,A,3,07,10,14,24,25,27,29,30,32,33,,,0.7,0.4,0.6,4*3F
$GNVTG,,T,,M,0.0,N,0.0,K,A*3D
$GNRMC,121026.00,A,5159.367888,N,00422.977058,E,0.0,,191120,1.8,W,A,V*6A
$GNGGA,121026.00,5159.367888,N,00422.977058,E,1,12,0.4,-0.2,M,47.0,M,,*5D
$GPGSV,3,1,11,02,41,255,42,04,14,074,39,05,35,299,29,06,25,201,44,1*65
$GPGSV,3,2,11,07,63,136,42,09,52,074,40,13,05,251,36,16,15,039,36,1*64
$GPGSV,3,3,11,29,08,320,35,30,43,181,44,26,00,000,,1*58
$GLGSV,3,1,10,78,41,136,45,77,43,054,23,76,06,016,30,79,03,172,40,1*7D
$GLGSV,3,2,10,69,31,293,44,84,33,286,32,83,12,227,26,85,14,345,28,1*77
$GLGSV,3,3,10,67,33,090,44,68,73,009,34,1*75
$GAGSV,3,1,09,02,11,025,32,07,42,084,43,12,30,300,32,19,31,271,35,7*7C
$GAGSV,3,2,09,26,05,195,35,27,23,135,36,30,33,074,39,33,32,239,36,7*71
$GAGSV,3,3,09,11,02,343,,7*4C
$GBGSV,4,1,13,33,30,109,32,32,36,289,31,30,16,286,35,29,08,337,38,1*7F
$GBGSV,4,2,13,27,07,237,39,25,49,135,48,24,33,056,25,23,15,180,40,1*77
$GBGSV,4,3,13,14,05,109,36,10,22,078,42,09,02,067,39,07,18,052,29,1*74
$GBGSV,4,4,13,05,11,119,32,1*49
$GNGSA,A,3,02,04,05,06,07,09,13,16,29,,,,0.7,0.4,0.6,1*31
$GNGSA,A,3,67,68,69,76,77,78,83,84,85,,,,0.7,0.4,0.6,2*33
$GNGSA,A,3,02,07,12,19,26,27,30,33,,,,,0.7,0.4,0.6,3*3A
$GNGSA,A,3,07,10,14,24,25,27,29,30,32,33,,,0.7,0.4,0.6,4*3F
$GNVTG,,T,,M,0.0,N,0.0,K,A*3D
$GNRMC,121027.00,A,5159.367883,N,00422.977052,E,0.0,,191120,1.8,W,A,V*6A
$GNGGA,121027.00,5159.367883,N,00422.977052,E,1,12,0.4,-0.3,M,47.0,M,,*5C
$GPGSV,3,1,11,02,41,255,44,04,14,074,39,05,35,299,33,06,25,201,44,1*68
$GPGSV,3,2,11,07,63,136,42,09,52,074,39,13,05,251,39,16,15,039,38,1*6B
$GPGSV,3,3,11,29,08,320,39,30,43,181,45,26,00,000,,1*55
$GLGSV,3,1,10,78,41,136,45,77,43,054,22,76,06,016,31,79,03,172,39,1*73
$GLGSV,3,2,10,69,31,293,45,84,33,286,33,83,12,227,26,85,14,345,31,1*7F
$GLGSV,3,3,10,67,33,090,43,68,73,009,27,1*70
$GAGSV,3,1,09,02,11,025,32,07,42,084,44,12,30,300,31,19,31,271,37,7*7A
$GAGSV,3,2,09,26,05,195,34,27,23,135,37,30,33,074,39,33,32,239,39,7*7E
$GAGSV,3,3,09,11,02,343,,7*4C
$GBGSV,4,1,13,33,30,109,33,32,36,289,29,30,16,286,33,29,08,337,41,1*7F
$GBGSV,4,2,13,27,07,237,41,25,49,135,46,24,33,056,32,23,15,180,42,1*72
$GBGSV,4,3,13,14,05,109,37,10,22,078,41,09,02,067,39,07,18,052,31,1*7F
$GBGSV,4,4,13,05,11,119,34,1*4F
$GNGSA,A,3,02,04,05,06,07,09,13,16,29,,,,0.7,0.4,0.6,1*31
$GNGSA,A,3,67,68,69,76,77,78,83,84,85,,,,0.7,0.4,0.6,2*33
$GNGSA,A,3,02,07,12,19,26,27,30,33,,,,,0.7,0.4,0.6,3*3A
$GNGSA,A,3,07,10,14,24,25,27,29,30,32,33,,,0.7,0.4,0.6,4*3F
$GNVTG,,T,,M,0.0,N,0.0,K,A*3D
$GNRMC,121028.00,A,5159.367881,N,00422.977051,E,0.0,,191120,1.8,W,A,V*64
$GNGGA,121028.00,5159.367881,N,00422.977051,E,1,12,0.4,-0.3,M,47.0,M,,*52
$GPGSV,3,1,11,02,41,255,44,04,14,074,39,05,35,299,33,06,25,201,44,1*68
$GPGSV,3,2,11,07,63,136,42,09,52,074,39,13,05,251,38,16,15,039,37,1*65
$GPGSV,3,3,11,29,08,320,40,30,43,181,46,26,00,000,,1*58
$GLGSV,3,1,10,78,41,136,45,77,43,054,22,76,06,016,32,79,03,172,39,1*70
$GLGSV,3,2,10,69,31,293,44,84,33,286,34,83,12,227,23,85,14,345,32,1*7F
$GLGSV,3,3,10,67,33,090,43,68,73,009,28,1*7F
$GAGSV,3,1,09,02,11,025,34,07,42,084,43,12,30,300,31,19,31,271,38,7*74
$GAGSV,3,2,09,26,05,195,35,27,23,135,36,30,33,074,39,33,32,239,39,7*7E
$GAGSV,3,3,09,11,02,343,,7*4C
$GBGSV,4,1,13,33,30,109,31,32,36,289,32,30,16,286,35,29,08,337,41,1*71
$GBGSV,4,2,13,27,07,237,40,25,49,135,47,24,33,056,31,23,15,180,41,1*72
$GBGSV,4,3,13,14,05,109,37,10,22,078,40,09,02,067,39,07,18,052,28,1*76
$GBGSV,4,4,13,05,11,119,34,1*4F
$GNGSA,A,3,02,04,05,06,07,09,13,16,29,,,,0.7,0.4,0.6,1*31
$GNGSA,A,3,67,68,69,76,77,78,83,84,85,,,,0.7,0.4,0.6,2*33
$GNGSA,A,3,02,07,12,19,26,27,30,33,,,,,0.7,0.4,0.6,3*3A
$GNGSA,A,3,07,10,14,24,25,27,29,30,32,33,,,0.7,0.4,0.6,4*3F
$GNVTG,,T,,M,0.0,N,0.0,K,A*3D
$GNRMC,121029.00,A,5159.367880,N,00422.977052,E,0.0,,191120,1.8,W,A,V*67
$GNGGA,121029.00,5159.367880,N,00422.977052,E,1,12,0.4,-0.3,M,47.0,M,,*51
$GPGSV,3,1,11,02,41,255,42,04,14,074,39,05,35,299,33,06,25,201,44,1*6E
$GPGSV,3,2,11,07,63,136,42,09,52,074,39,13,05,251,35,16,15,039,39,1*66
$GPGSV,3,3,11,29,08,320,39,30,43,181,45,26,00,000,,1*55
$GLGSV,3,1,10,78,41,136,45,77,43,054,21,76,06,016,32,79,03,172,40,1*7D
$GLGSV,3,2,10,69,31,293,45,84,33,286,33,83,12,227,23,85,14,345,32,1*79
$GLGSV,3,3,10,67,33,090,43,68,73,009,29,1*7E
$GAGSV,3,1,09,02,11,025,34,07,42,084,44,12,30,300,31,19,31,271,38,7*73
$GAGSV,3,2,09,26,05,195,34,27,23,135,35,30,33,074,38,33,32,239,39,7*7D
$GAGSV,3,3,09,11,02,343,,7*4C
$GBGSV,4,1,13,33,30,109,33,32,36,289,31,30,16,286,32,29,08,337,41,1*77
$GBGSV,4,2,13,27,07,237,41,25,49,135,47,24,33,056,29,23,15,180,41,1*7A
$GBGSV,4,3,13,14,05,109,37,10,22,078,40,09,02,067,40,07,18,052,29,1*79
$GBGSV,4,4,13,05,11,119,36,1*4D
$GNGSA,A,3,02,04,05,06,07,09,13,16,29,,,,0.7,0.4,0.6,1*31
$GNGSA,A,3,67,68,69,76,77,78,83,84,85,,,,0.7,0.4,0.6,2*33
$GNGSA,A,3,02,07,12,19,26,27,30,33,,,,,0.7,0.4,0.6,3*3A
$GNGSA,A,3,07,10,14,24,25,27,29,30,32,33,,,0.7,0.4,0.6,4*3F
$GNVTG,,T,,M,0.0,N,0.0,K,A*3D
$GNRMC,121030.00,A,5159.367880,N,00422.977055,E,0.0,,191120,1.8,W,A,V*68
$GNGGA,121030.00,5159.367880,N,00422.977055,E,1,12,0.4,-0.2,M,47.0,M,,*5F
$GPGSV,3,1,11,02,41,255,39,04,14,074,40,05,35,299,25,06,25,201,43,1*6C
$GPGSV,3,2,11,07,63,136,43,09,51,074,40,13,05,251,33,16,15,039,34,1*61
$GPGSV,3,3,11,29,08,320,39,30,44,181,44,26,00,000,,1*53
$GLGSV,3,1,10,78,41,136,46,77,43,054,21,76,06,016,30,79,03,172,40,1*7C
$GLGSV,3,2,10,69,31,293,44,84,33,286,32,83,12,227,26,85,14,345,23,1*7C
$GLGSV,3,3,10,67,33,090,43,68,73,009,34,1*72
$GAGSV,3,1,09,02,11,025,31,07,42,084,44,12,30,300,32,19,31,271,37,7*7A
$GAGSV,3,2,09,26,05,195,32,27,23,135,36,30,33,074,38,33,32,239,38,7*79
$GAGSV,3,3,09,11,02,343,,7*4C
$GBGSV,4,1,13,33,30,109,36,32,36,289,31,30,16,286,36,29,08,337,39,1*79
$GBGSV,4,2,13,27,07,237,41,25,49,135,47,24,33,056,26,23,15,180,41,1*75
$GBGSV,4,3,13,14,05,109,36,10,22,078,42,09,02,067,39,07,18,052,30,1*7C
$GBGSV,4,4,13,05,11,119,32,1*49
$GNGSA,A,3,02,04,05,06,07,09,13,16,29,30,,,0.7,0.4,0.6,1*32
$GNGSA,A,3,67,68,69,76,77,78,83,84,85,,,,0.7,0.4,0.6,2*33
$GNGSA,A,3,02,07,12,19,26,27,30,33,,,,,0.7,0.4,0.6,3*3A
$GNGSA,A,3,07,10,14,24,25,27,29,30,32,33,,,0.7,0.4,0.6,4*3F
$GNVTG,,T,,M,0.0,N,0.0,K,A*3D
$GNRMC,121031.00,A,5159.367895,N,00422.977056,E,0.0,,191120,1.8,W,A,V*6E
$GNGGA,121031.00,5159.367895,N,00422.977056,E,1,12,0.4,-0.3,M,47.0,M,,*58
$GPGSV,3,1,11,02,41,255,40,04,14,074,40,05,35,299,30,06,25,201,44,1*61
$GPGSV,3,2,11,07,63,136,42,09,51,074,40,13,05,251,37,16,15,039,36,1*66
$GPGSV,3,3,11,29,08,320,38,30,44,181,44,26,00,000,,1*52
$GLGSV,3,1,10,78,41,136,46,77,43,054,21,76,06,016,30,79,03,172,39,1*72
$GLGSV,3,2,10,69,31,293,45,84,33,286,34,83,12,227,24,85,14,345,33,1*78
$GLGSV,3,3,10,67,33,090,43,68,73,009,32,1*74
$GAGSV,3,1,09,02,11,025,32,07,42,084,44,12,30,300,32,19,31,271,38,7*76
$GAGSV,3,2,09,26,05,195,32,27,23,135,35,30,33,074,39,33,32,239,39,7*7A
$GAGSV,3,3,09,11,02,343,,7*4C
$GBGSV,4,1,13,33,30,109,35,32,36,289,32,30,16,286,34,29,08,337,40,1*75
$GBGSV,4,2,13,27,07,237,41,25,49,135,47,24,33,056,24,23,15,180,40,1*76
$GBGSV,4,3,13,14,05,109,36,10,22,078,41,09,02,067,39,07,18,052,29,1*77
$GBGSV,4,4,13,05,11,119,34,1*4F
$GNGSA,A,3,02,04,05,06,07,09,13,16,29,30,,,0.7,0.4,0.6,1*32
$GNGSA,A,3,67,68,69,76,77,78,83,84,85,,,,0.7,0.4,0.6,2*33
$GNGSA,A,3,02,07,12,19,26,27,30,33,,,,,0.7,0.4,0.6,3*3A
$GNGSA,A,3,07,10,14,24,25,27,29,30,32,33,,,0.7,0.4,0.6,4*3F
$GNVTG,,T,,M,0.0,N,0.0,K,A*3D
$GNRMC,121032.00,A,5159.367907,N,00422.977059,E,0.0,,191120,1.8,W,A,V*68
$GNGGA,121032.00,5159.367907,N,00422.977059,E,1,12,0.4,-0.3,M,47.0,M,,*5E
$GPGSV,3,1,11,02,41,255,41,04,14,074,38,05,35,299,31,06,25,201,44,1*6E
$GPGSV,3,2,11,07,63,136,42,09,51,074,40,13,05,251,38,16,15,039,37,1*68
$GPGSV,3,3,11,29,08,320,40,30,44,181,44,26,00,000,,1*5D
$GLGSV,3,1,10,78,41,136,45,77,43,054,20,76,06,016,29,79,03,172,39,1*78
$GLGSV,3,2,10,69,31,293,45,84,33,286,33,83,12,227,24,85,14,345,32,1*7E
$GLGSV,3,3,10,67,33,090,42,68,73,009,27,1*71
$GAGSV,3,1,09,02,11,025,31,07,42,084,44,12,30,300,32,19,31,271,38,7*75
$GAGSV,3,2,09,26,05,195,33,27,23,135,36,30,33,074,38,33,32,239,39,7*79
$GAGSV,3,3,09,11,02,343,,7*4C
$GBGSV,4,1,13,33,30,109,37,32,36,289,34,30,16,286,35,29,08,337,41,1*71
$GBGSV,4,2,13,27,07,237,40,25,49,135,47,24,33,056,30,23,15,180,41,1*73
$GBGSV,4,3,13,14,05,109,38,10,22,078,41,09,02,067,39,07,18,052,30,1*71
$GBGSV,4,4,13,05,11,119,34,1*4F
$GNGSA,A,3,02,04,05,06,07,09,13,16,29,30,,,0.7,0.4,0.6,1*32
$GNGSA,A,3,67,68,69,76,77,78,83,84,85,,,,0.7,0.4,0.6,2*33
$GNGSA,A,3,02,07,12,19,26,27,30,33,,,,,0.7,0.4,0.6,3*3A
$GNGSA,A,3,07,10,14,24,25,27,29,30,32,33,,,0.7,0.4,0.6,4*3F
$GNVTG,,T,,M,0.0,N,0.0,K,A*3D
$GNRMC,121033.00,A,5159.367917,N,00422.977058,E,0.0,,191120,1.8,W,A,V*69
$GNGGA,121033.00,5159.367917,N,00422.977058,E,1,12,0.4,-0.4,M,47.0,M,,*58
$GPGSV,3,1,11,02,41,255,40,04,14,074,38,05,35,299,29,06,25,201,44,1*66
$GPGSV,3,2,11,07,63,136,42,09,51,074,39,13,05,251,35,16,15,039,37,1*6B
$GPGSV,3,3,11,29,08,320,39,30,44,181,43,26,00,000,,1*54
$GLGSV,3,1,10,78,41,136,45,77,43,054,20,76,06,016,28,79,03,172,39,1*79
$GLGSV,3,2,10,69,31,293,45,84,33,286,34,83,12,227,23,85,14,345,34,1*78
$GLGSV,3,3,10,67,33,090,42,68,73,009,26,1*70
$GAGSV,3,1,09,02,11,025,32,07,42,084,43,12,30,300,31,19,31,271,38,7*72
$GAGSV,3,2,09,26,05,195,33,27,23,135,36,30,33,074,38,33,32,239,39,7*79
$GAGSV,3,3,09,11,02,343,,7*4C
$GBGSV,4,1,13,33,30,109,34,32,36,289,33,30,16,286,33,29,08,337,40,1*72
$GBGSV,4,2,13,27,07,237,41,25,49,135,47,24,33,056,26,23,15,180,40,1*74
$GBGSV,4,3,13,14,05,109,37,10,22,078,40,09,02,067,39,07,18,052,30,1*7F
$GBGSV,4,4,13,05,11,119,35,1*4E
$GNGSA,A,3,02,04,05,06,07,09,13,16,29,30,,,0.7,0.4,0.6,1*32
$GNGSA,A,3,67,68,69,76,77,78,83,84,85,,,,0.7,0.4,0.6,2*33
$GNGSA,A,3,02,07,12,19,26,27,30,33,,,,,0.7,0.4,0.6,3*3A
$GNGSA,A,3,07,10,14,24,25,27,29,30,32,33,,,0.7,0.4,0.6,4*3F
$GNVTG,,T,,M,0.0,N,0.0,K,A*3D
$GNRMC,121034.00,A,5159.367920,N,00422.977058,E,0.0,,191120,1.8,W,A,V*6A
$GNGGA,121034.00,5159.367920,N,00422.977058,E,1,12,0.4,-0.4,M,47.0,M,,*5B
$GPGSV,3,1,11,02,41,255,40,04,14,074,38,05,35,299,26,06,25,201,43,1*6E
$GPGSV,3,2,11,07,63,136,43,09,51,074,38,13,05,251,34,16,15,039,36,1*6B
$GPGSV,3,3,11,29,08,320,40,30,44,181,43,26,00,000,,1*5A
$GLGSV,3,1,10,78,41,136,45,77,43,054,20,76,06,016,23,79,03,172,39,1*72
$GLGSV,3,2,10,69,31,293,45,84,33,286,33,83,12,227,23,85,14,345,30,1*7B
$GLGSV,3,3,10,67,33,090,41,68,73,009,27,1*72
$GAGSV,3,1,09,02,11,025,27,07,42,084,44,12,30,300,32,19,31,271,37,7*7D
$GAGSV,3,2,09,26,05,195,32,27,23,135,36,30,33,074,38,33,32,239,38,7*79
$GAGSV,3,3,09,11,02,343,,7*4C
$GBGSV,4,1,13,33,30,109,36,32,36,289,32,30,16,286,34,29,08,337,41,1*77
$GBGSV,4,2,13,27,07,237,40,25,49,135,46,24,33,056,28,23,15,180,40,1*7A
$GBGSV,4,3,13,14,05,109,33,10,22,078,40,09,02,067,39,07,18,052,29,1*73
$GBGSV,4,4,13,05,11,119,35,1*4E
$GNGSA,A,3,02,04,05,06,07,09,13,16,29,30,,,0.7,0.4,0.6,1*32
$GNGSA,A,3,67,68,69,76,77,78,83,84,85,,,,0.7,0.4,0.6,2*33
$GNGSA,A,3,02,07,12,19,26,27,30,33,,,,,0.7,0.4,0.6,3*3A
$GNGSA,A,3,07,10,14,24,25,27,29,30,32,33,,,0.7,0.4,0.6,4*3F
$GNVTG,,T,,M,0.0,N,0.0,K,A*3D
$GNRMC,121035.00,A,5159.367916,N,00422.977058,E,0.0,,191120,1.8,W,A,V*6E
$GNGGA,121035.00,5159.367916,N,00422.977058,E,1,12,0.4,-0.4,M,47.0,M,,*5F
$GPGSV,3,1,11,02,41,255,41,04,14,074,38,05,35,299,27,06,25,201,44,1*69
$GPGSV,3,2,11,07,63,136,43,09,51,074,38,13,05,251,35,16,15,039,37,1*6B
$GPGSV,3,3,11,29,08,320,41,30,44,181,44,26,00,000,,1*5C
$GLGSV,3,1,10,78,41,136,45,77,43,054,20,76,06,016,23,79,03,172,39,1*72
$GLGSV,3,2,10,69,31,293,45,84,33,286,34,83,12,227,23,85,14,345,32,1*7E
$GLGSV,3,3,10,67,33,090,42,68,73,009,26,1*70
$GAGSV,3,1,09,02,11,025,32,07,42,084,44,12,30,300,32,19,31,271,38,7*76
$GAGSV,3,2,09,26,05,195,35,27,23,135,36,30,33,074,37,33,32,239,39,7*70
$GAGSV,3,3,09,11,02,343,,7*4C
$GBGSV,4,1,13,33,30,109,36,32,36,289,33,30,16,286,33,29,08,337,41,1*71
$GBGSV,4,2,13,27,07,237,41,25,49,135,46,24,33,056,28,23,15,180,41,1*7A
$GBGSV,4,3,13,14,05,109,34,10,22,078,40,09,02,067,39,07,18,052,30,1*7C
$GBGSV,4,4,13,05,11,119,36,1*4D
$GNGSA,A,3,02,04,05,06,07,09,13,16,29,30,,,0.7,0.4,0.6,1*32
$GNGSA,A,3,67,68,69,76,77,78,83,84,85,,,,0.7,0.4,0.6,2*33
$GNGSA,A,3,02,07,12,19,26,27,30,33,,,,,0.7,0.4,0.6,3*3A
$GNGSA,A,3,07,10,14,24,25,27,29,30,32,33,,,0.7,0.4,0.6,4*3F
$GNVTG,,T,,M,0.0,N,0.0,K,A*3D
$GNRMC,121036.00,A,5159.367926,N,00422.977058,E,0.0,,191120,1.8,W,A,V*6E
$GNGGA,121036.00,5159.367926,N,00422.977058,E,1,12,0.4,-0.4,M,47.0,M,,*5F
$GPGSV,3,1,11,02,41,255,40,04,14,074,38,05,35,299,30,06,25,201,44,1*6E
$GPGSV,3,2,11,07,63,136,43,09,51,074,38,13,05,251,35,16,15,039,36,1*6A
$GPGSV,3,3,11,29,08,320,41,30,44,181,43,26,00,000,,1*5B
$GLGSV,3,1,10,78,41,136,45,77,43,054,20,76,06,016,23,79,03,172,40,1*7C
$GLGSV,3,2,10,69,31,293,45,84,33,286,34,83,12,227,19,85,14,345,30,1*75
$GLGSV,3,3,10,67,33,090,42,68,73,009,27,1*71
$GAGSV,3,1,09,02,11,025,32,07,42,084,44,12,30,300,33,19,31,271,39,7*76
$GAGSV,3,2,09,26,05,195,33,27,23,135,36,30,33,074,38,33,32,239,39,7*79
$GAGSV,3,3,09,11,02,343,,7*4C
$GBGSV,4,1,13,33,30,109,35,32,36,289,32,30,16,286,35,29,08,337,41,1*75
$GBGSV,4,2,13,27,07,237,41,25,49,135,46,24,33,056,29,23,15,180,41,1*7B
$GBGSV,4,3,13,14,05,109,35,10,22,078,40,09,02,067,38,07,18,052,30,1*7C
$GBGSV,4,4,13,05,11,119,36,1*4D
$GNGSA,A,3,02,04,05,06,07,09,13,16,29,30,,,0.7,0.4,0.6,1*32
$GNGSA,A,3,67,68,69,76,77,78,83,84,85,,,,0.7,0.4,0.6,2*33
$GNGSA,A,3,02,07,12,19,26,27,30,33,,,,,0.7,0.4,0.6,3*3A
$GNGSA,A,3,07,10,14,24,25,27,29,30,32,33,,,0.7,0.4,0.6,4*3F
$GNVTG,,T,,M,0.0,N,0.0,K,A*3D
$GNRMC,121037.00,A,5159.367930,N,00422.977059,E,0.0,,191120,1.8,W,A,V*69
$GNGGA,121037.00,5159.367930,N,00422.977059,E,1,12,0.4,-0.4,M,47.0,M,,*58
$GPGSV,3,1,11,02,41,255,41,04,14,074,38,05,35,299,31,06,25,201,43,1*69
$GPGSV,3,2,11,07,63,136,43,09,51,074,38,13,05,251,34,16,15,039,37,1*6A
$GPGSV,3,3,11,29,08,320,42,30,44,181,44,26,00,000,,1*5F
$GLGSV,3,1,10,78,41,136,45,77,43,054,20,76,06,016,21,79,03,172,38,1*71
$GLGSV,3,2,10,69,31,293,45,84,33,286,34,83,12,227,21,85,14,345,32,1*7C
$GLGSV,3,3,10,67,33,090,42,68,73,009,26,1*70
$GAGSV,3,1,09,02,11,025,32,07,42,084,44,12,30,300,32,19,31,271,39,7*77
$GAGSV,3,2,09,26,05,195,34,27,23,135,36,30,33,074,38,33,32,239,39,7*7E
$GAGSV,3,3,09,11,02,343,,7*4C
$GBGSV,4,1,13,33,30,109,35,32,36,289,33,30,16,286,33,29,08,337,42,1*71
$GBGSV,4,2,13,27,07,237,41,25,49,135,46,24,33,056,29,23,15,180,41,1*7B
$GBGSV,4,3,13,14,05,109,34,10,22,078,40,09,02,067,38,07,18,052,29,1*75
$GBGSV,4,4,13,05,11,119,37,1*4C
$GNGSA,A,3,02,04,05,06,07,09,13,16,29,30,,,0.7,0.4,0.6,1*32
$GNGSA,A,3,67,68,69,76,77,78,83,84,85,,,,0.7,0.4,0.6,2*33
$GNGSA,A,3,02,07,12,19,26,27,30,33,,,,,0.7,0.4,0.6,3*3A
$GNGSA,A,3,07,10,14,24,25,27,29,30,32,33,,,0.7,0.4,0.6,4*3F
$GNVTG,,T,,M,0.0,N,0.0,K,A*3D
$GNRMC,121038.00,A,5159.367932,N,00422.977056,E,0.0,,191120,1.8,W,A,V*6B
$GNGGA,121038.00,5159.367932,N,00422.977056,E,1,12,0.4,-0.4,M,47.0,M,,*5A
$GPGSV,3,1,11,02,41,255,41,04,14,074,37,05,35,299,30,06,25,201,43,1*67
$GPGSV,3,2,11,07,63,136,42,09,51,074,38,13,05,251,35,16,15,039,35,1*68
$GPGSV,3,3,11,29,08,320,41,30,44,181,43,26,00,000,,1*5B
$GLGSV,3,1,10,78,41,136,45,77,43,054,17,76,06,016,21,79,03,172,39,1*74
$GLGSV,3,2,10,69,32,293,45,84,33,286,33,83,12,227,21,85,14,345,32,1*78
$GLGSV,3,3,10,67,33,090,43,68,73,009,26,1*71
$GAGSV,3,1,09,02,11,025,34,07,42,084,44,12,30,300,33,19,31,271,38,7*71
$GAGSV,3,2,09,26,05,195,34,27,23,135,37,30,33,074,37,33,32,239,39,7*70
$GAGSV,3,3,09,11,02,343,,7*4C
$GBGSV,4,1,13,33,30,109,36,32,36,289,33,30,16,286,35,29,08,337,40,1*76
$GBGSV,4,2,13,27,07,237,41,25,49,135,47,24,33,056,30,23,15,180,42,1*71
$GBGSV,4,3,13,14,05,109,33,10,22,078,40,09,02,067,38,07,18,052,30,1*7A
$GBGSV,4,4,13,05,11,119,35,1*4E
$GNGSA,A,3,02,04,05,06,07,09,13,16,29,30,,,0.7,0.4,0.6,1*32
$GNGSA,A,3,67,68,69,76,77,78,83,84,85,,,,0.7,0.4,0.6,2*33
$GNGSA,A,3,02,07,12,19,26,27,30,33,,,,,0.7,0.4,0.6,3*3A
$GNGSA,A,3,07,10,14,24,25,27,29,30,32,33,,,0.7,0.4,0.6,4*3F
$GNVTG,,T,,M,0.0,N,0.0,K,A*3D
$GNRMC,121039.00,A,5159.367939,N,00422.977057,E,0.0,,191120,1.8,W,A,V*60
$GNGGA,121039.00,5159.367939,N,00422.977057,E,1,12,0.4,-0.4,M,47.0,M,,*51
$GPGSV,3,1,11,02,41,255,39,04,14,074,38,05,35,299,31,06,25,201,43,1*66
$GPGSV,3,2,11,07,63,136,43,09,51,074,39,13,05,251,33,16,15,039,37,1*6C
$GPGSV,3,3,11,29,08,320,39,30,44,181,44,26,00,000,,1*53
$GLGSV,3,1,10,78,41,136,46,77,43,054,17,76,06,016,21,79,03,172,38,1*76
$GLGSV,3,2,10,69,32,293,45,84,33,286,33,83,12,227,23,85,14,345,31,1*79
$GLGSV,3,3,10,67,33,090,44,68,73,009,28,1*78
$GAGSV,3,1,09,02,11,025,34,07,42,084,43,12,30,300,32,19,31,271,38,7*77
$GAGSV,3,2,09,26,05,195,34,27,23,135,37,30,33,073,38,33,32,239,38,7*79
$GAGSV,3,3,09,11,02,343,,7*4C
$GBGSV,4,1,13,33,30,109,36,32,36,289,34,30,16,286,35,29,08,337,40,1*71
$GBGSV,4,2,13,27,07,237,41,25,49,135,47,24,33,056,32,23,15,180,42,1*73
$GBGSV,4,3,13,14,05,109,35,10,22,078,40,09,02,067,39,07,18,052,30,1*7D
$GBGSV,4,4,13,05,11,119,34,1*4F
$GNGSA,A,3,02,04,05,06,07,09,13,16,29,30,,,0.7,0.4,0.6,1*32
$GNGSA,A,3,67,68,69,76,77,78,83,84,85,,,,0.7,0.4,0.6,2*33
$GNGSA,A,3,02,07,12,19,26,27,30,33,,,,,0.7,0.4,0.6,3*3A
$GNGSA,A,3,07,10,14,24,25,27,29,30,32,33,,,0.7,0.4,0.6,4*3F
$GNVTG,,T,,M,0.0,N,0.0,K,A*3D
$GNRMC,121040.00,A,5159.367940,N,00422.977057,E,0.0,,191120,1.8,W,A,V*60
$GNGGA,121040.00,5159.367940,N,00422.977057,E,1,12,0.4,-0.4,M,47.0,M,,*51
$GPGSV,3,1,11,02,41,255,40,04,14,074,38,05,35,299,30,06,25,201,42,1*68
$GPGSV,3,2,11,07,63,136,43,09,51,074,39,13,05,251,35,16,15,039,37,1*6A
$GPGSV,3,3,11,29,08,320,38,30,44,181,44,26,00,000,,1*52
$GLGSV,3,1,10,78,41,136,46,77,43,054,17,76,06,016,24,79,03,172,38,1*73
$GLGSV,3,2,10,69,32,293,45,84,33,286,34,83,12,227,26,85,14,345,30,1*7A
$GLGSV,3,3,10,67,33,090,44,68,73,009,28,1*78
$GAGSV,3,1,09,02,11,025,36,07,42,084,43,12,30,300,31,19,31,271,37,7*79
$GAGSV,3,2,09,26,05,195,34,27,23,135,36,30,33,073,37,33,32,239,38,7*77
$GAGSV,3,3,09,11,02,343,,7*4C
$GBGSV,4,1,13,33,30,109,34,32,36,289,33,30,16,286,33,29,08,337,40,1*72
$GBGSV,4,2,13,27,07,237,40,25,49,135,47,24,33,056,28,23,15,180,42,1*79
$GBGSV,4,3,13,14,05,109,33,10,22,078,39,09,02,067,38,07,18,052,25,1*70
$GBGSV,4,4,13,05,11,119,34,1*4F
$GNGSA,A,3,02,04,05,06,07,09,13,16,29,30,,,0.7,0.4,0.6,1*32
$GNGSA,A,3,67,68,69,76,77,78,83,84,85,,,,0.7,0.4,0.6,2*33
$GNGSA,A,3,02,07,12,19,26,27,30,33,,,,,0.7,0.4,0.6,3*3A
$GNGSA,A,3,07,10,14,24,25,27,29,30,32,33,,,0.7,0.4,0.6,4*3F
$GNVTG,,T,,M,0.0,N,0.0,K,A*3D
$GNRMC,121041.00,A,5159.367941,N,00422.977056,E,0.0,,191120,1.8,W,A,V*61
$GNGGA,121041.00,5159.367941,N,00422.977056,E,1,12,0.4,-0.4,M,47.0,M,,*50
$GPGSV,3,1,11,02,41,255,43,04,14,074,38,05,35,299,32,06,25,201,41,1*6A
$GPGSV,3,2,11,07,63,136,42,09,51,074,39,13,05,251,33,16,15,039,36,1*6C
$GPGSV,3,3,11,29,08,320,39,30,44,181,44,26,00,000,,1*53
$GLGSV,3,1,10,78,41,136,46,77,43,054,18,76,06,016,27,79,03,172,38,1*7F
$GLGSV,3,2,10,69,32,293,45,84,33,286,34,83,12,227,28,85,14,345,33,1*77
$GLGSV,3,3,10,67,33,090,43,68,73,009,23,1*74
$GAGSV,3,1,09,02,11,025,36,07,42,084,44,12,30,300,33,19,31,271,38,7*73
$GAGSV,3,2,09,26,05,195,32,27,23,135,38,30,33,073,37,33,32,239,40,7*70
$GAGSV,3,3,09,11,02,343,,7*4C
$GBGSV,4,1,13,33,30,109,35,32,36,289,31,30,16,286,35,29,08,337,40,1*77
$GBGSV,4,2,13,27,07,237,41,25,49,135,47,24,33,056,28,23,15,180,41,1*7B
$GBGSV,4,3,13,14,05,109,34,10,22,078,40,09,02,067,39,07,18,052,29,1*74
$GBGSV,4,4,13,05,11,119,35,1*4E
$GNGSA,A,3,02,04,05,06,07,09,13,16,29,30,,,0.7,0.4,0.6,1*32
$GNGSA,A,3,67,68,69,76,77,78,83,84,85,,,,0.7,0.4,0.6,2*33
$GNGSA,A,3,02,07,12,19,26,27,30,33,,,,,0.7,0.4,0.6,3*3A
$GNGSA,A,3,07,10,14,24,25,27,29,30,32,33,,,0.7,0.4,0.6,4*3F
$GNVTG,,T,,M,0.0,N,0.0,K,A*3D
$GNRMC,121042.00,A,5159.367940,N,00422.977058,E,0.0,,191120,1.8,W,A,V*6D
$GNGGA,121042.00,5159.367940,N,00422.977058,E,1,12,0.4,-0.4,M,47.0,M,,*5C
$GPGSV,3,1,11,02,41,255,43,04,14,074,38,05,35,299,32,06,25,201,43,1*68
$GPGSV,3,2,11,07,63,136,42,09,51,074,40,13,05,251,39,16,15,039,37,1*69
$GPGSV,3,3,11,29,08,320,39,30,44,181,44,26,00,000,,1*53
$GLGSV,3,1,10,78,41,136,46,77,43,054,18,76,06,016,25,79,03,172,37,1*72
$GLGSV,3,2,10,69,32,293,45,84,33,286,34,83,12,227,26,85,14,345,34,1*7E
$GLGSV,3,3,10,67,33,090,43,68,73,009,24,1*73
$GAGSV,3,1,09,02,11,025,36,07,42,084,44,12,30,300,32,19,31,271,38,7*72
$GAGSV,3,2,09,26,05,195,33,27,23,135,37,30,33,073,37,33,32,239,41,7*7F
$GAGSV,3,3,09,11,02,343,,7*4C
$GBGSV,4,1,13,33,30,109,35,32,36,289,31,30,16,286,36,29,08,337,41,1*75
$GBGSV,4,2,13,27,07,237,41,25,49,135,47,24,33,056,32,23,15,180,40,1*71
$GBGSV,4,3,13,14,05,109,34,10,22,078,40,09,02,067,38,07,18,052,30,1*7D
$GBGSV,4,4,13,05,11,119,35,1*4E
$GNGSA,A,3,02,04,05,06,07,09,13,16,29,30,,,0.7,0.4,0.6,1*32
$GNGSA,A,3,67,68,69,76,77,78,83,84,85,,,,0.7,0.4,0.6,2*33
$GNGSA,A,3,02,07,12,19,26,27,30,33,,,,,0.7,0.4,0.6,3*3A
$GNGSA,A,3,07,10,14,24,25,27,29,30,32,33,,,0.7,0.4,0.6,4*3F
$GNVTG,,T,,M,0.0,N,0.0,K,A*3D
$GNRMC,121043.00,A,5159.367939,N,00422.977058,E,0.0,,191120,1.8,W,A,V*62
$GNGGA,121043.00,5159.367939,N,00422.977058,E,1,12,0.4,-0.4,M,47.0,M,,*53
$GPGSV,3,1,11,02,41,255,45,04,14,074,38,05,35,299,32,06,25,201,43,1*6E
$GPGSV,3,2,11,07,63,136,43,09,51,074,40,13,05,251,41,16,15,039,38,1*68
$GPGSV,3,3,11,29,08,320,40,30,44,181,44,26,00,000,,1*5D
$GLGSV,3,1,10,78,41,136,45,77,43,054,18,76,06,016,26,79,03,172,38,1*7D
$GLGSV,3,2,10,69,32,293,45,84,33,286,35,83,12,227,28,85,14,345,33,1*76
$GLGSV,3,3,10,67,33,090,42,68,73,009,25,1*73
$GAGSV,3,1,09,02,11,025,35,07,42,084,44,12,30,300,34,19,31,271,38,7*77
$GAGSV,3,2,09,26,05,195,34,27,23,135,36,30,33,073,37,33,32,239,42,7*7A
$GAGSV,3,3,09,11,02,343,,7*4C
$GBGSV,4,1,13,33,30,109,33,32,36,289,28,30,16,286,36,29,08,337,41,1*7B
$GBGSV,4,2,13,27,07,237,41,25,49,135,47,24,33,056,31,23,15,180,40,1*72
$GBGSV,4,3,13,14,05,109,35,10,22,078,40,09,02,067,38,07,18,052,29,1*74
$GBGSV,4,4,13,05,11,119,34,1*4F
$GNGSA,A,3,02,04,05,06,07,09,13,16,29,30,,,0.7,0.4,0.6,1*32
$GNGSA,A,3,67,68,69,76,77,78,83,84,85,,,,0.7,0.4,0.6,2*33
$GNGSA,A,3,02,07,12,19,26,27,30,33,,,,,0.7,0.4,0.6,3*3A
$GNGSA,A,3,07,10,14,24,25,27,29,30,32,33,,,0.7,0.4,0.6,4*3F
$GNVTG,,T,,M,0.0,N,0.0,K,A*3D
$GNRMC,121044.00,A,5159.367938,N,00422.977060,E,0.0,,191120,1.8,W,A,V*6F
$GNGGA,121044.00,5159.367938,N,00422.977060,E,1,12,0.4,-0.4,M,47.0,M,,*5E
$GPGSV,3,1,11,02,41,255,44,04,14,074,37,05,35,299,31,06,25,201,43,1*63
$GPGSV,3,2,11,07,63,136,43,09,51,074,40,13,05,251,40,16,15,039,38,1*69
$GPGSV,3,3,11,29,08,320,40,30,44,181,44,26,00,000,,1*5D
$GLGSV,3,1,10,78,41,136,45,77,43,054,18,76,06,016,27,79,03,172,37,1*73
$GLGSV,3,2,10,69,32,293,45,84,33,286,34,83,12,227,29,85,14,345,34,1*71
$GLGSV,3,3,10,67,33,090,42,68,73,009,26,1*70
$GAGSV,3,1,09,02,11,025,35,07,42,084,43,12,30,300,33,19,31,271,38,7*77
$GAGSV,3,2,09,26,05,195,34,27,23,135,37,30,33,073,36,33,32,239,41,7*79
$GAGSV,3,3,09,11,02,343,,7*4C
$GBGSV,4,1,13,33,30,109,33,32,36,289,29,30,16,285,35,29,08,337,41,1*7A
$GBGSV,4,2,13,27,07,236,46,25,49,135,47,24,33,056,31,23,15,180,42,1*76
$GBGSV,4,3,13,14,05,109,35,10,22,078,40,09,02,067,38,07,18,052,29,1*74
$GBGSV,4,4,13,05,11,119,35,1*4E
$GNGSA,A,3,02,04,05,06,07,09,13,16,29,30,,,0.7,0.4,0.6,1*32
$GNGSA,A,3,67,68,69,76,77,78,83,84,85,,,,0.7,0.4,0.6,2*33
$GNGSA,A,3,02,07,12,19,26,27,30,33,,,,,0.7,0.4,0.6,3*3A
$GNGSA,A,3,07,10,14,23,24,25,27,29,30,32,33,,0.7,0.4,0.6,4*3E
$GNVTG,,T,,M,0.0,N,0.0,K,A*3D
$GNRMC,121045.00,A,5159.367916,N,00422.977071,E,0.0,,191120,1.8,W,A,V*62
$GNGGA,121045.00,5159.367916,N,00422.977071,E,1,12,0.4,-0.5,M,47.0,M,,*52
$GPGSV,3,1,11,02,41,255,44,04,14,074,37,05,35,299,30,06,25,201,42,1*63
$GPGSV,3,2,11,07,63,136,43,09,51,074,40,13,05,251,40,16,15,039,36,1*67
$GPGSV,3,3,11,29,08,320,38,30,44,181,43,26,00,000,,1*55
$GLGSV,3,1,10,78,41,136,46,77,43,054,19,76,06,016,30,79,03,172,38,1*78
$GLGSV,3,2,10,69,32,293,44,84,33,286,33,83,12,227,31,85,14,345,31,1*7B
$GLGSV,3,3,10,67,33,090,42,68,73,009,30,1*77
$GAGSV,3,1,09,02,11,025,33,07,42,084,44,12,30,300,33,19,31,271,37,7*79
$GAGSV,3,2,09,26,05,195,34,27,23,135,36,30,33,073,37,33,32,239,41,7*79
$GAGSV,3,3,09,11,02,343,,7*4C
$GBGSV,4,1,13,33,30,109,34,32,36,289,26,30,16,285,36,29,08,337,40,1*70
$GBGSV,4,2,13,27,07,236,45,25,49,135,47,24,33,056,28,23,15,180,41,1*7E
$GBGSV,4,3,13,14,05,109,35,10,22,078,40,09,02,067,39,07,18,052,28,1*74
$GBGSV,4,4,13,05,11,119,34,1*4F
$GNGSA,A,3,02,04,05,06,07,09,13,16,29,30,,,0.7,0.4,0.6,1*32
$GNGSA,A,3,67,68,69,76,77,78,83,84,85,,,,0.7,0.4,0.6,2*33
$GNGSA,A,3,02,07,12,19,26,27,30,33,,,,,0.7,0.4,0.6,3*3A
$GNGSA,A,3,07,10,14,23,24,25,27,29,30,32,33,,0.7,0.4,0.6,4*3E
$GNVTG,,T,,M,0.0,N,0.0,K,A*3D
$GNRMC,121046.00,A,5159.367889,N,00422.977083,E,0.0,,191120,1.8,W,A,V*6B
$GNGGA,121046.00,5159.367889,N,00422.977083,E,1,12,0.4,-0.7,M,47.0,M,,*59
$GPGSV,3,1,11,02,41,255,44,04,14,074,37,05,35,299,31,06,25,201,43,1*63
$GPGSV,3,2,11,07,63,136,42,09,51,074,40,13,05,251,40,16,15,039,37,1*67
$GPGSV,3,3,11,29,08,320,39,30,44,181,43,26,00,000,,1*54
$GLGSV,3,1,10,78,41,136,45,77,43,054,19,76,06,016,30,79,03,172,39,1*7A
$GLGSV,3,2,10,69,32,293,45,84,33,286,34,83,12,227,31,85,14,345,34,1*78
$GLGSV,3,3,10,67,33,090,42,68,73,009,28,1*7E
$GAGSV,3,1,09,02,11,025,34,07,42,084,44,12,30,300,33,19,31,271,38,7*71
$GAGSV,3,2,09,26,05,195,31,27,23,135,36,30,33,073,37,33,32,239,42,7*7F
$GAGSV,3,3,09,11,02,343,,7*4C
$GBGSV,4,1,13,33,30,109,35,32,36,289,26,30,16,285,34,29,08,337,41,1*72
$GBGSV,4,2,13,27,07,236,46,25,49,135,47,24,33,056,31,23,15,180,41,1*75
$GBGSV,4,3,13,14,05,109,35,10,22,078,40,09,02,067,38,07,18,052,28,1*75
$GBGSV,4,4,13,05,11,119,35,1*4E
$GNGSA,A,3,02,04,05,06,07,09,13,16,29,30,,,0.7,0.4,0.6,1*32
$GNGSA,A,3,67,68,69,76,77,78,83,84,85,,,,0.7,0.4,0.6,2*33
$GNGSA,A,3,02,07,12,19,26,27,30,33,,,,,0.7,0.4,0.6,3*3A
$GNGSA,A,3,07,10,14,23,24,25,27,29,30,32,33,,0.7,0.4,0.6,4*3E
$GNVTG,,T,,M,0.0,N,0.0,K,A*3D
$GNRMC,121047.00,A,5159.367865,N,00422.977092,E,0.0,,191120,1.8,W,A,V*68
$GNGGA,121047.00,5159.367865,N,00422.977092,E,1,12,0.4,-0.8,M,47.0,M,,*55
$GPGSV,3,1,11,02,41,255,44,04,14,074,37,05,35,299,31,06,25,201,43,1*63
$GPGSV,3,2,11,07,63,136,42,09,51,074,40,13,05,251,40,16,15,039,37,1*67
$GPGSV,3,3,11,29,08,320,40,30,44,181,44,26,00,000,,1*5D
$GLGSV,3,1,10,78,41,136,46,77,43,054,19,76,06,016,29,79,03,172,38,1*70
$GLGSV,3,2,10,69,32,293,45,84,33,286,34,83,12,227,32,85,14,345,34,1*7B
$GLGSV,3,3,10,67,33,090,42,68,73,009,27,1*71
$GAGSV,3,1,09,02,11,025,33,07,42,084,44,12,30,300,32,19,31,271,38,7*77
$GAGSV,3,2,09,26,05,195,31,27,23,135,37,30,33,073,37,33,32,239,42,7*7E
$GAGSV,3,3,09,11,02,343,,7*4C
$GBGSV,4,1,13,33,30,109,34,32,36,289,25,30,16,285,33,29,08,337,41,1*77
$GBGSV,4,2,13,27,07,236,46,25,49,135,48,24,33,056,30,23,15,180,41,1*7B
$GBGSV,4,3,13,14,05,109,35,10,22,078,41,09,02,067,38,07,18,052,27,1*7B
$GBGSV,4,4,13,05,11,119,35,1*4E
$GNGSA,A,3,02,04,05,06,07,09,13,16,29,30,,,0.7,0.4,0.6,1*32
$GNGSA,A,3,67,68,69,76,77,78,83,84,85,,,,0.7,0.4,0.6,2*33
$GNGSA,A,3,02,07,12,19,26,27,30,33,,,,,0.7,0.4,0.6,3*3A
$GNGSA,A,3,07,10,14,23,24,25,27,29,30,32,33,,0.7,0.4,0.6,4*3E
$GNVTG,,T,,M,0.0,N,0.0,K,A*3D
$GNRMC,121048.00,A,5159.367848,N,00422.977097,E,0.0,,191120,1.8,W,A,V*6D
$GNGGA,121048.00,5159.367848,N,00422.977097,E,1,12,0.4,-0.8,M,47.0,M,,*50
$GPGSV,3,1,11,02,41,255,44,04,14,074,38,05,35,299,32,06,25,201,43,1*6F
$GPGSV,3,2,11,07,63,136,42,09,51,074,40,13,05,251,40,16,15,039,37,1*67
$GPGSV,3,3,11,29,08,320,40,30,44,181,44,26,00,000,,1*5D
$GLGSV,3,1,10,78,41,136,46,77,43,054,19,76,06,016,29,79,03,172,39,1*71
$GLGSV,3,2,10,69,32,293,45,84,33,286,34,83,12,227,30,85,14,345,32,1*7F
$GLGSV,3,3,10,67,33,090,42,68,73,009,28,1*7E
$GAGSV,3,1,09,02,11,025,33,07,42,084,44,12,30,300,32,19,31,271,37,7*78
$GAGSV,3,2,09,26,05,195,33,27,23,135,37,30,33,073,37,33,32,239,43,7*7D
$GAGSV,3,3,09,11,02,343,,7*4C
$GBGSV,4,1,13,33,30,109,33,32,36,289,26,30,16,285,34,29,08,337,41,1*74
$GBGSV,4,2,13,27,07,236,46,25,49,135,47,24,33,056,31,23,15,180,41,1*75
$GBGSV,4,3,13,14,05,109,36,10,22,078,40,09,02,067,37,07,18,052,27,1*76
$GBGSV,4,4,13,05,11,119,34,1*4F
$GNGSA,A,3,02,04,05,06,07,09,13,16,29,30,,,0.7,0.4,0.6,1*32
$GNGSA,A,3,67,68,69,76,77,78,83,84,85,,,,0.7,0.4,0.6,2*33
$GNGSA,A,3,02,07,12,19,26,27,30,33,,,,,0.7,0.4,0.6,3*3A
$GNGSA,A,3,07,10,14,23,24,25,27,29,30,32,33,,0.7,0.4,0.6,4*3E
$GNVTG,,T,,M,0.0,N,0.0,K,A*3D
$GNRMC,121049.00,A,5159.367828,N,00422.977103,E,0.0,,191120,1.8,W,A,V*66
$GNGGA,121049.00,5159.367828,N,00422.977103,E,1,12,0.4,-0.9,M,47.0,M,,*5A
$GPGSV,3,1,11,02,41,255,43,04,14,074,38,05,35,299,31,06,25,201,42,1*6A
$GPGSV,3,2,11,07,63,136,42,09,51,074,39,13,05,251,39,16,15,039,36,1*66
$GPGSV,3,3,11,29,08,320,39,30,44,181,43,26,00,000,,1*54
$GLGSV,3,1,10,78,41,136,46,77,43,054,19,76,06,016,30,79,03,172,39,1*79
$GLGSV,3,2,10,69,32,293,44,84,33,286,33,83,12,227,30,85,14,345,31,1*7A
$GLGSV,3,3,10,67,33,090,42,68,73,009,29,1*7F
$GAGSV,3,1,09,02,11,025,32,07,42,084,44,12,30,300,32,19,31,271,36,7*78
$GAGSV,3,2,09,26,05,195,34,27,23,135,37,30,33,073,37,33,32,239,42,7*7B
$GAGSV,3,3,09,11,02,343,,7*4C
$GBGSV,4,1,13,33,30,109,34,32,36,289,23,30,16,285,35,29,08,337,39,1*78
$GBGSV,4,2,13,27,07,236,45,25,49,135,47,24,33,056,28,23,15,180,41,1*7E
$GBGSV,4,3,13,14,05,109,35,10,22,078,40,09,02,067,38,07,18,052,27,1*7A
$GBGSV,4,4,13,05,11,119,34,1*4F
$GNGSA,A,3,02,04,05,06,07,09,13,16,29,30,,,0.7,0.4,0.6,1*32
$GNGSA,A,3,67,68,69,76,77,78,83,84,85,,,,0.7,0.4,0.6,2*33
$GNGSA,A,3,02,07,12,19,26,27,30,33,,,,,0.7,0.4,0.6,3*3A
$GNGSA,A,3,07,10,14,23,24,25,27,29,30,32,33,,0.7,0.4,0.6,4*3E
$GNVTG,,T,,M,0.0,N,0.0,K,A*3D
$GNRMC,121050.00,A,5159.367816,N,00422.977103,E,0.0,,191120,1.8,W,A,V*63
$GNGGA,121050.00,5159.367816,N,00422.977103,E,1,12,0.4,-0.9,M,47.0,M,,*5F
$GPGSV,3,1,11,02,41,255,43,04,14,074,37,05,35,299,31,06,25,201,42,1*65
$GPGSV,3,2,11,07,63,136,43,09,51,074,39,13,05,251,39,16,15,039,36,1*67
$GPGSV,3,3,11,29,08,320,39,30,44,181,44,26,00,000,,1*53
$GLGSV,3,1,10,78,41,136,46,77,43,054,20,76,06,016,32,79,03,172,39,1*71
$GLGSV,3,2,10,69,32,293,44,84,33,286,33,83,12,227,27,85,14,345,32,1*7F
$GLGSV,3,3,10,67,33,090,42,68,73,009,30,1*77
$GAGSV,3,1,09,02,11,025,32,07,42,084,44,12,30,300,31,19,31,271,37,7*7A
$GAGSV,3,2,09,26,05,195,35,27,23,135,37,30,33,073,38,33,32,239,42,7*75
$GAGSV,3,3,09,11,02,343,,7*4C
$GBGSV,4,1,13,33,30,109,34,32,36,289,27,30,16,285,35,29,08,337,39,1*7C
$GBGSV,4,2,13,27,07,236,46,25,49,135,47,24,33,056,27,23,15,180,42,1*71
$GBGSV,4,3,13,14,05,109,35,10,22,078,40,09,02,067,38,07,18,052,29,1*74
$GBGSV,4,4,13,05,11,119,34,1*4F
$GNGSA,A,3,02,04,05,06,07,09,13,16,29,30,,,0.7,0.4,0.6,1*32
$GNGSA,A,3,67,68,69,76,77,78,83,84,85,,,,0.7,0.4,0.6,2*33
$GNGSA,A,3,02,07,12,19,26,27,30,33,,,,,0.7,0.4,0.6,3*3A
$GNGSA,A,3,07,10,14,23,24,25,27,29,30,32,33,,0.7,0.4,0.6,4*3E
$GNVTG,,T,,M,0.0,N,0.0,K,A*3D
$GNRMC,121051.00,A,5159.367802,N,00422.977107,E,0.0,,191120,1.8,W,A,V*63
$GNGGA,121051.00,5159.367802,N,00422.977107,E,1,12,0.4,-0.9,M,47.0,M,,*5F
$GPGSV,3,1,11,02,41,255,43,04,14,074,37,05,35,299,31,06,25,201,42,1*65
$GPGSV,3,2,11,07,63,136,42,09,51,074,40,13,05,251,39,16,15,039,36,1*68
$GPGSV,3,3,11,29,08,320,39,30,44,181,44,26,00,000,,1*53
$GLGSV,3,1,10,78,41,136,46,77,43,054,20,76,06,016,33,79,03,172,38,1*71
$GLGSV,3,2,10,69,32,293,44,84,33,286,33,83,12,227,28,85,14,345,33,1*71
$GLGSV,3,3,10,67,33,090,42,68,73,009,29,1*7F
$GAGSV,3,1,09,02,11,025,33,07,42,084,44,12,30,300,31,19,31,271,37,7*7B
$GAGSV,3,2,09,26,05,195,35,27,23,135,36,30,33,073,38,33,32,239,42,7*74
$GAGSV,3,3,09,11,02,343,,7*4C
$GBGSV,4,1,13,33,30,109,34,32,36,289,29,30,16,285,35,29,08,337,39,1*72
$GBGSV,4,2,13,27,07,236,46,25,49,135,47,24,33,056,29,23,15,180,41,1*7C
$GBGSV,4,3,13,14,05,109,36,10,22,078,40,09,02,067,37,07,18,052,27,1*76
$GBGSV,4,4,13,05,11,119,33,1*48
$GNGSA,A,3,02,04,05,06,07,09,13,16,29,30,,,0.7,0.4,0.6,1*32
$GNGSA,A,3,67,68,69,76,77,78,83,84,85,,,,0.7,0.4,0.6,2*33
$GNGSA,A,3,02,07,12,19,26,27,30,33,,,,,0.7,0.4,0.6,3*3A
$GNGSA,A,3,07,10,14,23,24,25,27,29,30,32,33,,0.7,0.4,0.6,4*3E
$GNVTG,,T,,M,0.0,N,0.0,K,A*3D
$GNRMC,121052.00,A,5159.367784,N,00422.977109,E,0.0,,191120,1.8,W,A,V*6F
$GNGGA,121052.00,5159.367784,N,00422.977109,E,1,12,0.4,-1.0,M,47.0,M,,*5B
$GPGSV,3,1,11,02,41,255,44,04,14,074,38,05,35,299,34,06,25,201,42,1*68
$GPGSV,3,2,11,07,63,136,43,09,51,074,40,13,05,251,40,16,15,039,37,1*66
$GPGSV,3,3,11,29,08,320,40,30,44,181,44,26,00,000,,1*5D
$GLGSV,3,1,10,78,41,136,45,77,43,054,20,76,06,016,33,79,03,172,38,1*72
$GLGSV,3,2,10,69,32,293,44,84,33,286,33,83,12,227,27,85,14,345,34,1*79
$GLGSV,3,3,10,67,33,090,42,68,73,009,25,1*73
$GAGSV,3,1,09,02,11,025,34,07,42,084,44,12,30,300,31,19,31,271,38,7*73
$GAGSV,3,2,09,26,05,195,35,27,23,135,36,30,33,073,38,33,32,239,43,7*75
$GAGSV,3,3,09,11,02,343,,7*4C
$GBGSV,4,1,13,33,30,109,35,32,36,289,30,30,16,285,35,29,08,337,41,1*74
$GBGSV,4,2,13,27,07,236,46,25,49,135,47,24,33,056,32,23,15,180,42,1*75
$GBGSV,4,3,13,14,05,109,37,10,22,078,40,09,02,067,37,07,18,052,28,1*78
$GBGSV,4,4,13,05,11,119,35,1*4E
$GNGSA,A,3,02,04,05,06,07,09,13,16,29,30,,,0.7,0.4,0.6,1*32
$GNGSA,A,3,67,68,69,76,77,78,83,84,85,,,,0.7,0.4,0.6,2*33
$GNGSA,A,3,02,07,12,19,26,27,30,33,,,,,0.7,0.4,0.6,3*3A
$GNGSA,A,3,07,10,14,23,24,25,27,29,30,32,33,,0.7,0.4,0.6,4*3E
$GNVTG,,T,,M,0.0,N,0.0,K,A*3D
$GNRMC,121053.00,A,5159.367766,N,00422.977112,E,0.0,,191120,1.8,W,A,V*68
$GNGGA,121053.00,5159.367766,N,00422.977112,E,1,12,0.4,-1.0,M,47.0,M,,*5C
$GPGSV,3,1,11,02,41,255,44,04,14,074,37,05,35,299,34,06,25,201,42,1*67
$GPGSV,3,2,11,07,63,136,42,09,51,074,40,13,05,251,40,16,15,039,37,1*67
$GPGSV,3,3,11,29,08,320,40,30,44,181,44,26,00,000,,1*5D
$GLGSV,3,1,10,78,41,136,45,77,43,054,20,76,06,016,33,79,03,172,38,1*72
$GLGSV,3,2,10,69,32,293,45,84,33,286,35,83,12,227,29,85,14,345,33,1*77
$GLGSV,3,3,10,67,33,090,41,68,73,009,28,1*7D
$GAGSV,3,1,09,02,11,025,33,07,42,084,44,12,30,300,33,19,31,271,38,7*76
$GAGSV,3,2,09,26,05,195,32,27,23,135,37,30,33,073,37,33,32,239,42,7*7D
$GAGSV,3,3,09,11,02,343,,7*4C
$GBGSV,4,1,13,33,30,109,35,32,36,289,30,30,16,285,34,29,08,337,41,1*75
$GBGSV,4,2,13,27,07,236,45,25,49,135,47,24,33,056,31,23,15,180,41,1*76
$GBGSV,4,3,13,14,05,109,38,10,22,078,40,09,02,067,38,07,18,052,27,1*77
$GBGSV,4,4,13,05,11,119,35,1*4E
$GNGSA,A,3,02,04,05,06,07,09,13,16,29,30,,,0.7,0.4,0.6,1*32
$GNGSA,A,3,67,68,69,76,77,78,83,84,85,,,,0.7,0.4,0.6,2*33
$GNGSA,A,3,02,07,12,19,26,27,30,33,,,,,0.7,0.4,0.6,3*3A
$GNGSA,A,3,07,10,14,23,24,25,27,29,30,32,33,,0.7,0.4,0.6,4*3E
$GNVTG,,T,,M,0.0,N,0.0,K,A*3D
$GNRMC,121054.00,A,5159.367754,N,00422.977115,E,0.0,,191120,1.8,W,A,V*69
$GNGGA,121054.00,5159.367754,N,00422.977115,E,1,12,0.4,-1.0,M,47.0,M,,*5D
$GPGSV,3,1,11,02,41,255,43,04,14,074,37,05,35,299,31,06,25,201,40,1*67
$GPGSV,3,2,11,07,63,136,42,09,51,074,39,13,05,251,40,16,15,039,36,1*68
$GPGSV,3,3,11,29,08,320,38,30,44,181,43,26,00,000,,1*55
$GLGSV,3,1,10,78,41,136,45,77,43,054,18,76,06,016,31,79,03,172,37,1*74
$GLGSV,3,2,10,69,32,293,44,84,33,286,33,83,12,227,30,85,14,345,31,1*7A
$GLGSV,3,3,10,67,33,090,41,68,73,009,30,1*74
$GAGSV,3,1,09,02,11,025,34,07,42,084,44,12,30,300,32,19,31,271,37,7*7F
$GAGSV,3,2,09,26,05,195,31,27,23,135,37,30,33,073,38,33,32,239,42,7*71
$GAGSV,3,3,09,11,02,343,,7*4C
$GBGSV,4,1,13,33,30,109,35,32,36,289,24,30,16,285,34,29,08,337,39,1*7F
$GBGSV,4,2,13,27,07,236,44,25,49,135,47,24,33,056,30,23,15,180,38,1*78
$GBGSV,4,3,13,14,05,109,38,10,22,078,40,09,02,067,37,07,18,052,27,1*78
$GBGSV,4,4,13,05,11,119,34,1*4F
$GNGSA,A,3,02,04,05,06,07,09,13,16,29,30,,,0.7,0.4,0.6,1*32
$GNGSA,A,3,67,68,69,76,77,78,83,84,85,,,,0.7,0.4,0.6,2*33
$GNGSA,A,3,02,07,12,19,26,27,30,33,,,,,0.7,0.4,0.6,3*3A
$GNGSA,A,3,07,10,14,23,24,25,27,29,30,32,33,,0.7,0.4,0.6,4*3E
$GNVTG,,T,,M,0.0,N,0.0,K,A*3D
$GNRMC,121055.00,A,5159.367742,N,00422.977118,E,0.0,,191120,1.8,W,A,V*62
$GNGGA,121055.00,5159.367742,N,00422.977118,E,1,12,0.4,-1.1,M,47.0,M,,*57
$GPGSV,3,1,11,02,41,255,43,04,14,074,38,05,35,299,30,06,25,201,42,1*6B
$GPGSV,3,2,11,07,63,136,42,09,51,074,40,13,05,251,40,16,15,039,36,1*66
$GPGSV,3,3,11,29,08,320,39,30,44,181,43,26,00,000,,1*54
$GLGSV,3,1,10,78,41,136,46,77,43,054,18,76,06,016,31,79,03,172,32,1*72
$GLGSV,3,2,10,69,32,293,44,84,33,286,33,83,12,227,28,85,14,345,30,1*72
$GLGSV,3,3,10,67,33,090,42,68,73,009,31,1*76
$GAGSV,3,1,09,02,11,025,34,07,42,084,44,12,30,300,31,19,31,271,37,7*7C
$GAGSV,3,2,09,26,05,195,31,27,23,135,37,30,33,073,38,33,32,239,41,7*72
$GAGSV,3,3,09,11,02,343,,7*4C
$GBGSV,4,1,13,33,30,109,35,32,36,289,22,30,16,285,35,29,08,337,40,1*76
$GBGSV,4,2,13,27,07,236,44,25,49,135,47,24,33,056,28,23,15,180,39,1*70
$GBGSV,4,3,13,14,05,109,38,10,22,078,40,09,02,067,38,07,18,052,29,1*79
$GBGSV,4,4,13,05,11,119,33,1*48
$GNGSA,A,3,02,04,05,06,07,09,13,16,29,30,,,0.7,0.4,0.6,1*32
$GNGSA,A,3,67,68,69,76,77,78,83,84,85,,,,0.7,0.4,0.6,2*33
$GNGSA,A,3,02,07,12,19,26,27,30,33,,,,,0.7,0.4,0.6,3*3A
$GNGSA,A,3,07,10,14,23,24,25,27,29,30,32,33,,0.7,0.4,0.6,4*3E
$GNVTG,,T,,M,0.0,N,0.0,K,A*3D
$GNRMC,121056.00,A,5159.367733,N,00422.977119,E,0.0,,191120,1.8,W,A,V*66
$GNGGA,121056.00,5159.367733,N,00422.977119,E,1,12,0.4,-1.1,M,47.0,M,,*53
$GPGSV,3,1,11,02,41,255,43,04,14,074,37,05,35,299,32,06,25,201,42,1*66
$GPGSV,3,2,11,07,63,136,42,09,51,074,40,13,05,251,41,16,15,039,37,1*66
$GPGSV,3,3,11,29,08,320,39,30,44,181,43,26,00,000,,1*54
$GLGSV,3,1,10,78,41,136,45,77,43,054,18,76,06,016,31,79,03,172,38,1*7B
$GLGSV,3,2,10,69,32,293,44,84,33,286,33,83,12,227,28,85,14,345,31,1*73
$GLGSV,3,3,10,67,33,090,42,68,73,009,31,1*76
$GAGSV,3,1,09,02,11,025,34,07,42,084,44,12,30,300,32,19,31,271,37,7*7F
$GAGSV,3,2,09,26,05,195,28,27,23,135,37,30,33,073,38,33,32,239,41,7*7A
$GAGSV,3,3,09,11,02,343,,7*4C
$GBGSV,4,1,13,33,30,109,35,32,36,289,28,30,16,285,34,29,08,337,40,1*7D
$GBGSV,4,2,13,27,07,236,44,25,49,135,47,24,33,056,29,23,15,180,39,1*71
$GBGSV,4,3,13,14,05,109,39,10,22,078,40,09,02,067,38,07,18,052,30,1*70
$GBGSV,4,4,13,05,11,119,33,1*48
$GNGSA,A,3,02,04,05,06,07,09,13,16,29,30,,,0.7,0.4,0.6,1*32
$GNGSA,A,3,67,68,69,76,77,78,83,84,85,,,,0.7,0.4,0.6,2*33
$GNGSA,A,3,02,07,12,19,26,27,30,33,,,,,0.7,0.4,0.6,3*3A
$GNGSA,A,3,07,10,14,23,24,25,27,29,30,32,33,,0.7,0.4,0.6,4*3E
$GNVTG,,T,,M,0.0,N,0.0,K,A*3D
$GNRMC,121057.00,A,5159.367720,N,00422.977122,E,0.0,,191120,1.8,W,A,V*6D
$GNGGA,121057.00,5159.367720,N,00422.977122,E,1,12,0.4,-1.1,M,47.0,M,,*58
$GPGSV,3,1,11,02,41,255,44,04,14,074,36,05,35,299,32,06,25,201,42,1*60
$GPGSV,3,2,11,07,63,136,43,09,51,074,40,13,05,251,41,16,15,039,37,1*67
$GPGSV,3,3,11,29,08,320,40,30,44,181,44,26,00,000,,1*5D
$GLGSV,3,1,10,78,41,136,45,77,43,054,18,76,06,016,31,79,03,172,38,1*7B
$GLGSV,3,2,10,69,32,293,44,84,33,286,34,83,12,227,28,85,14,345,33,1*76
$GLGSV,3,3,10,67,33,090,41,68,73,009,29,1*7C
$GAGSV,3,1,09,02,11,025,35,07,42,084,44,12,30,300,33,19,31,271,38,7*70
$GAGSV,3,2,09,26,05,195,32,27,23,135,37,30,33,073,38,33,32,239,42,7*72
$GAGSV,3,3,09,11,02,343,,7*4C
$GBGSV,4,1,13,33,30,109,36,32,36,289,29,30,16,285,34,29,08,337,41,1*7E
$GBGSV,4,2,13,27,07,236,45,25,49,135,47,24,33,056,32,23,15,180,42,1*76
$GBGSV,4,3,13,14,05,109,39,10,22,078,39,09,02,067,38,07,18,052,28,1*77
$GBGSV,4,4,13,05,11,119,35,1*4E
$GNGSA,A,3,02,04,05,06,07,09,13,16,29,30,,,0.7,0.4,0.6,1*32
