$GPGSV,3,1,10,02,37,247,40,04,08,077,39,07,67,119,39,09,45,078,46,1*62
$GPGSV,3,2,10,13,11,255,41,30,52,178,45,05,42,298,,06,18,198,,1*65
$GPGSV,3,3,10,16,13,032,,29,07,314,,1*6B
$GLGSV,3,1,09,85,18,340,39,67,26,097,40,78,49,129,,77,39,045,,1*76
$GLGSV,3,2,09,79,11,172,,69,39,299,,84,29,277,,83,04,224,,1*73
$GLGSV,3,3,09,68,73,043,,1*4C
$GAGSV,3,1,09,02,07,022,38,07,37,088,43,11,05,340,35,12,31,293,32,7*7E
$GAGSV,3,2,09,19,37,274,25,27,29,130,40,30,33,067,39,33,26,234,39,7*7A
$GAGSV,3,3,09,26,00,000,,7*4E
$GBGSV,4,1,13,05,11,119,,07,19,049,,09,00,000,,10,24,075,,1*73
$GBGSV,4,2,13,14,00,000,,23,21,180,,24,30,050,,25,54,126,,1*7F
$GBGSV,4,3,13,27,02,233,,29,09,331,,30,13,281,,32,42,292,,1*71
$GBGSV,4,4,13,33,24,113,,1*41
$GNGSA,A,3,02,04,05,07,09,13,16,29,30,,,,0.8,0.5,0.6,1*3A
$GNGSA,A,3,67,68,69,77,78,83,84,85,,,,,0.8,0.5,0.6,2*3C
$GNGSA,A,3,02,07,12,19,27,30,33,,,,,,0.8,0.5,0.6,3*30
$GNGSA,A,3,07,10,23,24,25,29,30,33,,,,,0.8,0.5,0.6,4*31
$GNVTG,,T,,M,0.0,N,0.0,K,A*3D
$GNRMC,122633.64,A,5159.367161,N,00422.977365,E,0.0,,191120,1.8,W,A,V*6A
$GNGGA,122633.64,5159.367161,N,00422.977365,E,1,12,0.5,-2.3,M,47.0,M,,*5F
$GPGSV,3,1,10,02,37,247,39,04,08,077,40,05,42,298,36,06,18,198,27,1*6D
$GPGSV,3,2,10,07,67,119,38,09,45,078,46,13,11,255,39,16,13,032,34,1*6C
$GPGSV,3,3,10,29,07,314,37,30,52,178,44,1*61
$GLGSV,3,1,09,78,49,129,42,77,39,045,31,79,11,172,35,69,39,299,29,1*74
$GLGSV,3,2,09,83,04,224,26,85,18,340,40,67,26,097,43,68,73,043,32,1*78
$GLGSV,3,3,09,84,29,277,,1*44
$GAGSV,3,1,09,02,07,022,38,07,37,088,44,11,05,340,37,12,31,293,33,7*7A
$GAGSV,3,2,09,19,37,274,26,27,29,130,41,30,33,067,41,33,26,234,40,7*79
$GAGSV,3,3,09,26,00,000,,7*4E
$GBGSV,4,1,13,33,24,113,42,32,42,292,34,30,13,281,36,29,09,331,46,1*75
$GBGSV,4,2,13,27,02,233,34,25,54,126,42,24,30,050,39,23,21,180,28,1*7E
$GBGSV,4,3,13,10,24,075,40,07,19,049,38,05,11,119,37,09,00,000,,1*7A
$GBGSV,4,4,13,14,00,000,,1*41
$GNGSA,A,3,02,04,05,06,07,09,13,16,29,30,,,0.8,0.4,0.6,1*3D
$GNGSA,A,3,67,68,69,77,78,83,84,85,,,,,0.8,0.4,0.6,2*3D
$GNGSA,A,3,02,07,12,19,27,30,33,,,,,,0.8,0.4,0.6,3*31
$GNGSA,A,3,07,10,23,24,25,29,30,32,33,,,,0.8,0.4,0.6,4*31
$GNVTG,,T,,M,0.0,N,0.0,K,A*3D
$GNRMC,122635.00,A,5159.367362,N,00422.977418,E,0.0,,191120,1.8,W,A,V*62
$GNGGA,122635.00,5159.367362,N,00422.977418,E,1,12,0.4,-2.0,M,47.0,M,,*55
$GPGSV,3,1,10,02,37,247,35,04,08,077,39,05,42,298,28,06,18,198,29,1*6E
$GPGSV,3,2,10,07,67,119,37,09,45,078,46,13,11,255,40,16,13,032,36,1*6F
$GPGSV,3,3,10,29,07,314,41,30,52,178,42,1*66
$GLGSV,3,1,09,78,49,129,41,77,39,045,30,79,11,172,34,69,39,299,31,1*7E
$GLGSV,3,2,09,84,29,277,21,83,04,224,28,85,18,340,43,67,26,097,42,1*7E
$GLGSV,3,3,09,68,73,043,30,1*4F
$GAGSV,3,1,09,02,07,022,38,07,37,088,44,11,05,340,40,12,31,293,29,7*71
$GAGSV,3,2,09,19,37,274,24,27,29,130,41,30,33,067,40,33,26,234,40,7*7A
$GAGSV,3,3,09,26,00,000,,7*4E
$GBGSV,4,1,13,33,24,113,43,32,42,292,33,30,13,281,37,29,09,331,50,1*75
$GBGSV,4,2,13,27,02,233,32,25,54,126,43,24,30,050,38,23,21,180,27,1*77
$GBGSV,4,3,13,10,24,075,40,07,19,049,38,05,11,119,36,09,00,000,,1*7B
$GBGSV,4,4,13,14,00,000,,1*41
$GNGSA,A,3,02,04,05,06,07,09,13,16,29,30,,,0.8,0.4,0.6,1*3D
$GNGSA,A,3,67,68,69,77,78,83,84,85,,,,,0.8,0.4,0.6,2*3D
$GNGSA,A,3,02,07,12,19,27,30,33,,,,,,0.8,0.4,0.6,3*31
$GNGSA,A,3,07,10,23,24,25,29,30,32,33,,,,0.8,0.4,0.6,4*31
$GNVTG,,T,,M,0.0,N,0.0,K,A*3D
$GNRMC,122636.00,A,5159.367452,N,00422.977613,E,0.0,,191120,1.8,W,A,V*6C
$GNGGA,122636.00,5159.367452,N,00422.977613,E,1,12,0.4,-2.4,M,47.0,M,,*5F
$GPGSV,3,1,10,02,37,247,36,04,08,077,38,06,18,198,28,07,67,119,34,1*6F
$GPGSV,3,2,10,09,45,078,46,13,11,255,39,16,13,032,37,29,07,314,40,1*65
$GPGSV,3,3,10,30,52,178,42,05,42,298,,1*69
$GLGSV,3,1,09,78,49,129,41,77,39,045,32,79,11,172,35,69,39,299,33,1*7F
$GLGSV,3,2,09,84,29,277,24,83,04,224,27,85,18,340,42,67,26,097,42,1*75
$GLGSV,3,3,09,68,73,043,31,1*4E
$GAGSV,3,1,09,02,07,022,36,07,37,088,43,11,05,340,39,12,31,293,32,7*7C
$GAGSV,3,2,09,19,37,274,26,27,29,130,41,30,33,067,42,33,26,234,40,7*7A
$GAGSV,3,3,09,26,00,000,,7*4E
$GBGSV,4,1,13,33,24,113,42,32,42,292,36,30,13,281,37,29,09,331,49,1*79
$GBGSV,4,2,13,27,02,233,29,25,54,126,44,24,30,050,38,23,21,180,31,1*7D
$GBGSV,4,3,13,10,24,075,39,07,19,049,37,05,11,119,34,09,00,000,,1*78
$GBGSV,4,4,13,14,00,000,,1*41
$GNGSA,A,3,02,04,05,06,07,09,13,16,29,30,,,0.8,0.4,0.6,1*3D
$GNGSA,A,3,67,68,69,77,78,83,84,85,,,,,0.8,0.4,0.6,2*3D
$GNGSA,A,3,02,07,12,19,27,30,33,,,,,,0.8,0.4,0.6,3*31
$GNGSA,A,3,07,10,23,24,25,29,30,32,33,,,,0.8,0.4,0.6,4*31
$GNVTG,,T,,M,0.0,N,0.0,K,A*3D
$GNRMC,122637.00,A,5159.367448,N,00422.977703,E,0.0,,191120,1.8,W,A,V*66
$GNGGA,122637.00,5159.367448,N,00422.977703,E,1,12,0.4,-2.3,M,47.0,M,,*52
$GPGSV,3,1,10,02,37,247,38,04,08,077,39,05,42,298,26,06,18,198,27,1*63
$GPGSV,3,2,10,07,67,119,35,09,45,078,46,13,11,255,40,16,13,032,38,1*63
$GPGSV,3,3,10,29,07,314,39,30,52,178,43,1*68
$GLGSV,3,1,09,78,49,129,41,77,39,045,33,79,11,172,34,69,39,299,35,1*79
$GLGSV,3,2,09,84,29,277,25,83,04,224,28,85,18,340,43,67,26,097,42,1*7A
$GLGSV,3,3,09,68,73,043,27,1*49
$GAGSV,3,1,09,02,07,022,35,07,37,088,43,11,05,340,38,12,31,293,35,7*79
$GAGSV,3,2,09,19,37,274,25,27,29,130,41,30,33,067,42,33,26,234,40,7*79
$GAGSV,3,3,09,26,00,000,,7*4E
$GBGSV,4,1,13,33,24,113,42,32,42,292,38,30,13,281,37,29,09,331,49,1*77
$GBGSV,4,2,13,27,02,233,31,25,54,126,45,24,30,050,39,23,21,180,33,1*76
$GBGSV,4,3,13,10,24,075,40,07,19,049,37,05,11,119,35,09,00,000,,1*77
$GBGSV,4,4,13,14,00,000,,1*41
$GNGSA,A,3,02,04,05,06,07,09,13,16,29,30,,,0.8,0.4,0.6,1*3D
$GNGSA,A,3,67,68,69,77,78,83,84,85,,,,,0.8,0.4,0.6,2*3D
$GNGSA,A,3,02,07,12,19,27,30,33,,,,,,0.8,0.4,0.6,3*31
$GNGSA,A,3,07,10,23,24,25,29,30,32,33,,,,0.8,0.4,0.6,4*31
$GNVTG,,T,,M,0.0,N,0.0,K,A*3D
$GNRMC,122638.00,A,5159.367504,N,00422.977760,E,0.0,,191120,1.8,W,A,V*65
$GNGGA,122638.00,5159.367504,N,00422.977760,E,1,12,0.4,-2.0,M,47.0,M,,*52
$GPGSV,3,1,10,02,37,247,36,04,08,077,39,05,42,298,31,06,18,198,27,1*6B
$GPGSV,3,2,10,07,67,119,34,09,45,078,46,13,11,255,39,16,13,032,38,1*6C
$GPGSV,3,3,10,29,07,314,43,30,52,178,43,1*65
$GLGSV,3,1,09,78,49,129,39,77,39,045,32,79,11,172,37,69,39,299,31,1*70
$GLGSV,3,2,09,84,29,277,25,83,04,224,27,85,18,340,40,67,26,097,40,1*74
$GLGSV,3,3,09,68,73,043,30,1*4F
$GAGSV,3,1,09,02,07,022,35,07,37,088,43,11,05,340,38,12,31,293,35,7*79
$GAGSV,3,2,09,19,37,274,25,27,29,130,41,30,33,067,42,33,26,234,41,7*78
$GAGSV,3,3,09,26,00,000,,7*4E
$GBGSV,4,1,13,33,24,113,43,32,42,292,36,30,13,281,36,29,09,331,46,1*76
$GBGSV,4,2,13,27,02,233,32,25,54,126,44,24,30,050,39,23,21,180,32,1*75
$GBGSV,4,3,13,10,24,075,40,07,19,049,37,05,11,119,36,09,00,000,,1*74
$GBGSV,4,4,13,14,00,000,,1*41
$GNGSA,A,3,02,04,05,06,07,09,13,16,29,30,,,0.8,0.4,0.6,1*3D
$GNGSA,A,3,67,68,69,77,78,83,84,85,,,,,0.8,0.4,0.6,2*3D
$GNGSA,A,3,02,07,12,19,27,30,33,,,,,,0.8,0.4,0.6,3*31
$GNGSA,A,3,07,10,23,24,25,29,30,32,33,,,,0.8,0.4,0.6,4*31
$GNVTG,,T,,M,0.0,N,0.0,K,A*3D
$GNRMC,122639.00,A,5159.367472,N,00422.977874,E,0.0,,191120,1.8,W,A,V*6E
$GNGGA,122639.00,5159.367472,N,00422.977874,E,1,12,0.4,-2.0,M,47.0,M,,*59
$GPGSV,3,1,10,02,37,247,37,04,08,077,40,05,42,298,32,06,18,198,25,1*65
$GPGSV,3,2,10,07,67,119,36,09,45,078,46,13,11,255,40,16,13,032,38,1*60
$GPGSV,3,3,10,29,07,314,42,30,52,178,43,1*64
$GLGSV,3,1,09,78,49,129,41,77,39,045,33,79,11,172,35,69,39,299,30,1*7D
$GLGSV,3,2,09,84,29,277,26,83,04,224,26,85,18,340,43,67,26,097,41,1*74
$GLGSV,3,3,09,68,73,043,30,1*4F
$GAGSV,3,1,09,02,07,022,35,07,37,088,42,11,05,340,36,12,31,293,33,7*70
$GAGSV,3,2,09,19,37,274,26,27,29,130,39,30,33,067,40,33,26,234,40,7*77
$GAGSV,3,3,09,26,00,000,,7*4E
$GBGSV,4,1,13,33,24,113,43,32,42,292,37,30,13,281,38,29,09,331,46,1*79
$GBGSV,4,2,13,27,02,233,32,25,54,126,44,24,30,050,38,23,21,180,29,1*7E
$GBGSV,4,3,13,10,24,075,39,07,19,049,37,05,11,119,35,09,00,000,,1*79
$GBGSV,4,4,13,14,00,000,,1*41
$GNGSA,A,3,02,04,05,06,07,09,13,16,29,30,,,0.8,0.4,0.6,1*3D
$GNGSA,A,3,67,68,69,77,78,83,84,85,,,,,0.8,0.4,0.6,2*3D
$GNGSA,A,3,02,07,12,19,27,30,33,,,,,,0.8,0.4,0.6,3*31
$GNGSA,A,3,07,10,23,24,25,29,30,32,33,,,,0.8,0.4,0.6,4*31
$GNVTG,,T,,M,0.0,N,0.0,K,A*3D
$GNRMC,122640.00,A,5159.367451,N,00422.977943,E,0.0,,191120,1.8,W,A,V*64
$GNGGA,122640.00,5159.367451,N,00422.977943,E,1,12,0.4,-2.3,M,47.0,M,,*50
$GPGSV,3,1,10,02,37,247,36,04,08,077,39,05,42,298,32,06,18,198,26,1*69
$GPGSV,3,2,10,07,67,119,35,09,45,078,46,13,11,255,39,16,13,032,36,1*63
$GPGSV,3,3,10,29,07,314,43,30,52,178,43,1*65
$GLGSV,3,1,09,78,49,129,41,77,39,045,33,79,11,172,38,69,39,299,32,1*72
$GLGSV,3,2,09,84,29,277,28,83,04,224,28,85,18,340,42,67,26,097,41,1*75
$GLGSV,3,3,09,68,73,043,31,1*4E
$GAGSV,3,1,09,02,07,022,33,07,37,088,44,11,05,340,37,12,31,293,31,7*73
$GAGSV,3,2,09,19,37,274,24,27,29,130,40,30,33,067,44,33,26,234,40,7*7F
$GAGSV,3,3,09,26,00,000,,7*4E
$GBGSV,4,1,13,33,24,113,42,32,42,292,37,30,13,281,38,29,09,331,46,1*78
$GBGSV,4,2,13,27,02,233,34,25,54,126,44,24,30,050,39,23,21,180,31,1*70
$GBGSV,4,3,13,10,24,075,38,07,19,049,35,05,11,119,34,09,00,000,,1*7B
$GBGSV,4,4,13,14,00,000,,1*41
$GNGSA,A,3,02,04,05,06,07,09,13,16,29,30,,,0.8,0.4,0.6,1*3D
$GNGSA,A,3,67,68,69,77,78,83,84,85,,,,,0.8,0.4,0.6,2*3D
$GNGSA,A,3,02,07,12,19,27,30,33,,,,,,0.8,0.4,0.6,3*31
$GNGSA,A,3,07,10,23,24,25,29,30,32,33,,,,0.8,0.4,0.6,4*31
$GNVTG,,T,,M,0.0,N,0.0,K,A*3D
$GNRMC,122641.00,A,5159.367421,N,00422.977932,E,0.0,,191120,1.8,W,A,V*64
$GNGGA,122641.00,5159.367421,N,00422.977932,E,1,12,0.4,-2.5,M,47.0,M,,*56
$GPGSV,3,1,10,02,37,247,37,04,08,077,39,05,42,298,30,06,18,198,25,1*69
$GPGSV,3,2,10,07,67,119,34,09,45,078,47,13,11,255,40,16,13,032,35,1*6E
$GPGSV,3,3,10,29,07,314,42,30,52,178,43,1*64
$GLGSV,3,1,09,78,49,129,41,77,39,045,32,79,11,172,38,69,39,299,32,1*73
$GLGSV,3,2,09,84,29,277,26,83,04,224,29,85,18,340,41,67,26,097,41,1*79
$GLGSV,3,3,09,68,73,043,28,1*46
$GAGSV,3,1,09,02,07,022,37,07,37,088,44,11,05,340,35,12,31,293,32,7*76
$GAGSV,3,2,09,19,37,274,26,27,29,130,40,30,33,067,44,33,26,234,41,7*7C
$GAGSV,3,3,09,26,00,000,,7*4E
$GBGSV,4,1,13,33,24,113,42,32,42,292,37,30,13,281,37,29,09,331,45,1*74
$GBGSV,4,2,13,27,02,233,30,25,54,126,44,24,30,050,38,23,21,180,33,1*77
$GBGSV,4,3,13,14,00,000,21,10,24,075,37,07,19,049,37,05,11,119,34,1*79
$GBGSV,4,4,13,09,00,000,,1*4D
$GNGSA,A,3,02,04,05,06,07,09,13,16,29,30,,,0.8,0.4,0.6,1*3D
$GNGSA,A,3,67,68,69,77,78,83,84,85,,,,,0.8,0.4,0.6,2*3D
$GNGSA,A,3,02,07,12,19,27,30,33,,,,,,0.8,0.4,0.6,3*31
$GNGSA,A,3,07,10,23,24,25,29,30,32,33,,,,0.8,0.4,0.6,4*31
$GNVTG,,T,,M,0.0,N,0.0,K,A*3D
$GNRMC,122642.00,A,5159.367398,N,00422.977939,E,0.0,,191120,1.8,W,A,V*69
$GNGGA,122642.00,5159.367398,N,00422.977939,E,1,12,0.4,-2.6,M,47.0,M,,*58
$GPGSV,3,1,10,02,37,247,35,04,08,077,39,05,42,298,32,06,18,198,26,1*6A
$GPGSV,3,2,10,07,67,119,36,09,45,078,46,13,11,255,40,16,13,032,34,1*6C
$GPGSV,3,3,10,29,07,314,42,30,52,178,43,1*64
$GLGSV,3,1,09,78,49,129,40,77,39,045,33,79,11,172,39,69,39,299,33,1*73
$GLGSV,3,2,09,84,29,277,25,83,04,224,29,85,18,340,41,67,26,097,41,1*7A
$GLGSV,3,3,09,68,73,043,32,1*4D
$GAGSV,3,1,09,02,07,022,37,07,37,088,44,11,05,340,37,12,31,293,32,7*74
$GAGSV,3,2,09,19,37,274,28,27,29,130,40,30,33,067,45,33,26,234,41,7*73
$GAGSV,3,3,09,26,00,000,,7*4E
$GBGSV,4,1,13,33,24,113,42,32,42,292,37,30,13,281,37,29,09,331,48,1*79
$GBGSV,4,2,13,27,02,233,32,25,54,126,45,24,30,050,39,23,21,180,28,1*7F
$GBGSV,4,3,13,10,24,075,38,07,19,049,36,05,11,119,34,09,00,000,,1*78
$GBGSV,4,4,13,14,00,000,,1*41
$GNGSA,A,3,02,04,05,06,07,09,13,16,29,30,,,0.8,0.4,0.6,1*3D
$GNGSA,A,3,67,68,69,77,78,83,84,85,,,,,0.8,0.4,0.6,2*3D
$GNGSA,A,3,02,07,12,19,27,30,33,,,,,,0.8,0.4,0.6,3*31
$GNGSA,A,3,07,10,23,24,25,29,30,32,33,,,,0.8,0.4,0.6,4*31
$GNVTG,,T,,M,0.0,N,0.0,K,A*3D
$GNRMC,122643.00,A,5159.367383,N,00422.977942,E,0.0,,191120,1.8,W,A,V*6E
$GNGGA,122643.00,5159.367383,N,00422.977942,E,1,12,0.4,-2.7,M,47.0,M,,*5E
$GPGSV,3,1,10,02,37,247,35,04,08,077,39,05,42,298,32,06,18,198,25,1*69
$GPGSV,3,2,10,07,67,119,37,09,45,078,45,13,11,255,40,16,13,032,35,1*6F
$GPGSV,3,3,10,29,07,314,42,30,52,178,43,1*64
$GLGSV,3,1,09,78,49,129,41,77,39,045,33,79,11,172,38,69,39,299,34,1*74
$GLGSV,3,2,09,84,29,277,25,83,04,224,28,85,18,340,44,67,26,097,40,1*7F
$GLGSV,3,3,09,68,73,043,31,1*4E
$GAGSV,3,1,09,02,07,022,36,07,37,088,43,11,05,340,38,12,31,293,32,7*7D
$GAGSV,3,2,09,19,37,274,22,27,29,130,40,30,33,067,44,33,26,234,41,7*78
$GAGSV,3,3,09,26,00,000,,7*4E
$GBGSV,4,1,13,33,24,113,42,32,42,292,36,30,13,281,36,29,09,331,49,1*78
$GBGSV,4,2,13,27,02,233,33,25,54,126,45,24,30,050,39,23,21,180,32,1*75
$GBGSV,4,3,13,10,24,075,38,07,19,049,36,05,11,119,34,09,00,000,,1*78
$GBGSV,4,4,13,14,00,000,,1*41
$GNGSA,A,3,02,04,05,06,07,09,13,16,29,30,,,0.8,0.4,0.6,1*3D
$GNGSA,A,3,67,68,69,77,78,83,84,85,,,,,0.8,0.4,0.6,2*3D
$GNGSA,A,3,02,07,12,19,27,30,33,,,,,,0.8,0.4,0.6,3*31
$GNGSA,A,3,07,10,23,24,25,29,30,32,33,,,,0.8,0.4,0.6,4*31
$GNVTG,,T,,M,0.0,N,0.0,K,A*3D
$GNRMC,122644.00,A,5159.367376,N,00422.977946,E,0.0,,191120,1.8,W,A,V*67
$GNGGA,122644.00,5159.367376,N,00422.977946,E,1,12,0.4,-2.8,M,47.0,M,,*58
$GPGSV,3,1,10,02,37,247,33,04,08,077,38,05,42,298,33,06,18,198,25,1*6F
$GPGSV,3,2,10,07,67,119,35,09,45,078,44,13,11,255,39,16,13,032,37,1*60
$GPGSV,3,3,10,29,07,314,42,30,52,178,42,1*65
$GLGSV,3,1,09,78,49,129,41,77,39,045,33,79,11,172,37,69,39,299,35,1*7A
$GLGSV,3,2,09,84,29,277,24,83,04,224,27,85,18,340,43,67,26,097,40,1*76
$GLGSV,3,3,09,68,73,043,29,1*47
$GAGSV,3,1,09,02,07,022,34,07,37,088,43,11,05,340,38,12,31,293,32,7*7F
$GAGSV,3,2,09,19,37,274,22,27,29,130,39,30,33,067,44,33,26,234,40,7*77
$GAGSV,3,3,09,26,00,000,,7*4E
$GBGSV,4,1,13,33,24,113,41,32,42,292,36,30,13,281,35,29,09,331,49,1*78
$GBGSV,4,2,13,27,02,233,34,25,54,126,43,24,30,050,39,23,21,180,29,1*7E
$GBGSV,4,3,13,10,24,075,38,07,19,049,35,05,11,119,33,09,00,000,,1*7C
$GBGSV,4,4,13,14,00,000,,1*41
$GNGSA,A,3,02,04,05,06,07,09,13,16,29,30,,,0.8,0.5,0.7,1*3D
$GNGSA,A,3,67,68,69,77,78,84,85,,,,,,0.8,0.5,0.7,2*36
$GNGSA,A,3,02,07,12,19,27,30,33,,,,,,0.8,0.5,0.7,3*31
$GNGSA,A,3,07,10,23,24,25,29,30,32,33,,,,0.8,0.5,0.7,4*31
$GNVTG,,T,,M,0.0,N,0.0,K,A*3D
$GNRMC,122645.00,A,5159.367376,N,00422.977950,E,0.0,,191120,1.8,W,A,V*61
$GNGGA,122645.00,5159.367376,N,00422.977950,E,1,12,0.5,-2.8,M,47.0,M,,*5F
$GPGSV,3,1,10,02,37,247,33,04,08,077,38,05,42,298,34,07,67,119,36,1*6A
$GPGSV,3,2,10,09,45,078,44,13,11,255,40,16,13,032,36,29,07,314,43,1*6B
$GPGSV,3,3,10,30,52,178,42,06,18,198,,1*66
$GLGSV,3,1,09,78,49,129,41,77,39,045,33,79,11,172,38,69,39,299,35,1*75
$GLGSV,3,2,09,84,29,277,24,83,04,224,28,85,18,340,44,67,26,097,41,1*7F
$GLGSV,3,3,09,68,73,043,29,1*47
$GAGSV,3,1,09,02,07,022,34,07,37,088,43,11,05,340,38,12,31,293,32,7*7F
$GAGSV,3,2,09,19,37,274,20,27,29,130,38,30,33,067,44,33,26,234,40,7*74
$GAGSV,3,3,09,26,00,000,,7*4E
$GBGSV,4,1,13,33,24,113,40,32,42,292,36,30,13,281,36,29,09,331,49,1*7A
$GBGSV,4,2,13,27,02,233,32,25,54,126,44,24,30,050,39,23,21,180,26,1*70
$GBGSV,4,3,13,10,24,075,38,07,19,049,35,05,11,119,34,09,00,000,,1*7B
$GBGSV,4,4,13,14,00,000,,1*41
$GNGSA,A,3,02,04,05,06,07,09,13,16,29,30,,,0.8,0.5,0.7,1*3D
$GNGSA,A,3,67,68,69,77,78,84,85,,,,,,0.8,0.5,0.7,2*36
$GNGSA,A,3,02,07,12,19,27,30,33,,,,,,0.8,0.5,0.7,3*31
$GNGSA,A,3,07,10,23,24,25,29,30,32,33,,,,0.8,0.5,0.7,4*31
$GNVTG,,T,,M,0.0,N,0.0,K,A*3D
$GNRMC,122646.00,A,5159.367373,N,00422.977949,E,0.0,,191120,1.8,W,A,V*6F
$GNGGA,122646.00,5159.367373,N,00422.977949,E,1,12,0.5,-2.8,M,47.0,M,,*51
$GPGSV,3,1,10,02,37,247,33,04,08,077,38,05,42,298,29,06,18,198,23,1*62
$GPGSV,3,2,10,07,67,119,35,09,45,078,45,13,11,255,41,16,13,032,36,1*6F
$GPGSV,3,3,10,29,07,314,42,30,52,178,43,1*64
$GLGSV,3,1,09,78,49,129,40,77,39,045,34,79,11,172,38,69,39,299,35,1*73
$GLGSV,3,2,09,84,29,277,24,83,04,224,28,85,18,340,44,67,26,097,41,1*7F
$GLGSV,3,3,09,68,73,043,30,1*4F
$GAGSV,3,1,09,02,07,022,35,07,37,088,43,11,05,340,39,12,31,293,32,7*7F
$GAGSV,3,2,09,19,37,274,25,27,29,130,40,30,33,067,45,33,26,234,40,7*7F
$GAGSV,3,3,09,26,00,000,,7*4E
$GBGSV,4,1,13,33,24,113,41,32,42,292,36,30,13,281,36,29,09,331,49,1*7B
$GBGSV,4,2,13,27,02,233,33,25,54,126,44,24,30,050,39,23,21,180,26,1*71
$GBGSV,4,3,13,10,24,075,39,07,19,049,35,05,11,119,34,09,00,000,,1*7A
$GBGSV,4,4,13,14,00,000,,1*41
$GNGSA,A,3,02,04,05,06,07,09,13,16,29,30,,,0.8,0.5,0.7,1*3D
$GNGSA,A,3,67,68,69,77,78,84,85,,,,,,0.8,0.5,0.7,2*36
$GNGSA,A,3,02,07,12,19,27,30,33,,,,,,0.8,0.5,0.7,3*31
$GNGSA,A,3,07,10,23,24,25,29,30,32,33,,,,0.8,0.5,0.7,4*31
$GNVTG,,T,,M,0.0,N,0.0,K,A*3D
$GNRMC,122647.00,A,5159.367373,N,00422.977949,E,0.0,,191120,1.8,W,A,V*6E
$GNGGA,122647.00,5159.367373,N,00422.977949,E,1,12,0.5,-2.8,M,47.0,M,,*50
$GPGSV,3,1,10,02,37,247,36,04,08,077,39,05,42,298,28,06,18,198,23,1*67
$GPGSV,3,2,10,07,67,119,33,09,45,078,44,13,11,255,41,16,13,032,36,1*68
$GPGSV,3,3,10,29,07,314,41,30,52,178,43,1*67
$GLGSV,3,1,09,78,49,129,40,77,39,045,33,79,11,172,36,69,39,299,33,1*7C
$GLGSV,3,2,09,84,29,277,23,83,04,224,31,85,18,340,43,67,26,097,42,1*74
$GLGSV,3,3,09,68,73,043,34,1*4B
$GAGSV,3,1,09,02,07,022,36,07,37,088,44,11,05,340,39,12,31,293,31,7*78
$GAGSV,3,2,09,19,37,274,26,27,29,130,41,30,33,067,45,33,26,234,41,7*7C
$GAGSV,3,3,09,26,00,000,,7*4E
$GBGSV,4,1,13,33,24,113,42,32,42,292,35,30,13,281,37,29,09,331,50,1*72
$GBGSV,4,2,13,27,02,233,35,25,54,126,45,24,30,050,37,23,21,180,29,1*77
$GBGSV,4,3,13,10,24,075,37,09,00,000,18,07,19,049,35,05,11,119,34,1*7D
$GBGSV,4,4,13,14,00,000,,1*41
$GNGSA,A,3,02,04,05,06,07,09,13,16,29,30,,,0.8,0.5,0.7,1*3D
$GNGSA,A,3,67,68,69,77,78,84,85,,,,,,0.8,0.5,0.7,2*36
$GNGSA,A,3,02,07,12,19,27,30,33,,,,,,0.8,0.5,0.7,3*31
$GNGSA,A,3,07,10,23,24,25,29,30,32,33,,,,0.8,0.5,0.7,4*31
$GNVTG,,T,,M,0.0,N,0.0,K,A*3D
$GNRMC,122648.00,A,5159.367372,N,00422.977948,E,0.0,,191120,1.8,W,A,V*61
$GNGGA,122648.00,5159.367372,N,00422.977948,E,1,12,0.5,-2.8,M,47.0,M,,*5F
$GPGSV,3,1,10,02,37,247,36,04,08,077,38,05,42,298,29,06,18,198,21,1*65
$GPGSV,3,2,10,07,67,119,35,09,45,078,45,13,11,255,39,16,13,032,38,1*6E
$GPGSV,3,3,10,29,07,314,42,30,52,178,43,1*64
$GLGSV,3,1,09,78,49,129,41,77,39,045,33,79,11,172,37,69,39,299,36,1*79
$GLGSV,3,2,09,84,29,277,24,83,04,224,30,85,18,340,43,67,26,097,42,1*72
$GLGSV,3,3,09,68,73,043,34,1*4B
$GAGSV,3,1,09,02,07,022,34,07,37,088,44,11,05,340,39,12,31,293,33,7*78
$GAGSV,3,2,09,19,37,274,23,27,29,130,40,30,33,067,44,33,26,234,41,7*79
$GAGSV,3,3,09,26,00,000,,7*4E
$GBGSV,4,1,13,33,24,113,42,32,42,292,34,30,13,281,39,29,09,331,49,1*75
$GBGSV,4,2,13,27,02,233,35,25,54,126,44,24,30,050,39,23,21,180,29,1*78
$GBGSV,4,3,13,10,24,075,38,09,00,000,18,07,19,049,37,05,11,119,33,1*77
$GBGSV,4,4,13,14,00,000,,1*41
$GNGSA,A,3,02,04,05,06,07,09,13,16,29,30,,,0.8,0.5,0.7,1*3D
$GNGSA,A,3,67,68,69,77,78,84,85,,,,,,0.8,0.5,0.7,2*36
$GNGSA,A,3,02,07,12,19,27,30,33,,,,,,0.8,0.5,0.7,3*31
$GNGSA,A,3,07,10,23,24,25,29,30,32,33,,,,0.8,0.5,0.7,4*31
$GNVTG,,T,,M,0.0,N,0.0,K,A*3D
$GNRMC,122649.00,A,5159.367371,N,00422.977949,E,0.0,,191120,1.8,W,A,V*62
$GNGGA,122649.00,5159.367371,N,00422.977949,E,1,12,0.5,-2.8,M,47.0,M,,*5C
$GPGSV,3,1,10,02,37,247,37,04,08,077,38,05,42,298,29,06,18,198,23,1*66
$GPGSV,3,2,10,07,67,119,36,09,45,078,46,13,11,255,40,16,13,032,38,1*60
$GPGSV,3,3,10,29,07,314,42,30,52,178,43,1*64
$GLGSV,3,1,09,78,49,129,42,77,39,045,33,79,11,172,37,69,39,299,37,1*7B
$GLGSV,3,2,09,84,29,277,25,83,04,224,31,85,18,340,44,67,26,097,41,1*76
$GLGSV,3,3,09,68,73,043,33,1*4C
$GAGSV,3,1,09,02,07,022,36,07,37,088,44,11,05,340,38,12,31,293,32,7*7A
$GAGSV,3,2,09,19,37,274,23,27,29,130,41,30,33,067,43,33,26,234,41,7*7F
$GAGSV,3,3,09,26,00,000,,7*4E
$GBGSV,4,1,13,33,24,113,43,32,42,292,35,30,13,281,40,29,09,331,49,1*7B
$GBGSV,4,2,13,27,02,233,34,25,54,126,44,24,30,050,40,23,21,180,30,1*7F
$GBGSV,4,3,13,10,24,075,38,09,00,000,18,07,19,049,36,05,11,119,34,1*71
$GBGSV,4,4,13,14,00,000,,1*41
$GNGSA,A,3,02,04,05,06,07,09,13,16,29,30,,,0.8,0.5,0.7,1*3D
$GNGSA,A,3,67,68,69,77,78,84,85,,,,,,0.8,0.5,0.7,2*36
$GNGSA,A,3,02,07,12,19,27,30,33,,,,,,0.8,0.5,0.7,3*31
$GNGSA,A,3,07,10,23,24,25,29,30,32,33,,,,0.8,0.5,0.7,4*31
$GNVTG,,T,,M,0.0,N,0.0,K,A*3D
$GNRMC,122650.00,A,5159.367370,N,00422.977949,E,0.0,,191120,1.8,W,A,V*6B
$GNGGA,122650.00,5159.367370,N,00422.977949,E,1,12,0.5,-2.8,M,47.0,M,,*55
$GPGSV,3,1,10,02,37,247,37,04,08,077,38,05,42,298,29,06,18,198,22,1*67
$GPGSV,3,2,10,07,67,119,36,09,45,078,43,13,11,255,40,16,13,032,34,1*69
$GPGSV,3,3,10,29,07,314,41,30,52,178,43,1*67
$GLGSV,3,1,09,78,49,129,41,77,39,045,32,79,11,172,37,69,39,299,36,1*78
$GLGSV,3,2,09,84,29,277,26,83,04,224,29,85,18,340,43,67,26,097,40,1*7A
$GLGSV,3,3,09,68,73,043,33,1*4C
$GAGSV,3,1,09,02,07,022,35,07,37,088,45,11,05,340,38,12,31,293,32,7*78
$GAGSV,3,2,09,19,37,274,23,27,29,130,40,30,33,067,45,33,26,234,41,7*78
$GAGSV,3,3,09,26,00,000,,7*4E
$GBGSV,4,1,13,33,24,113,43,32,42,292,34,30,13,281,39,29,09,331,49,1*74
$GBGSV,4,2,13,27,02,233,33,25,54,126,43,24,30,050,41,23,21,180,33,1*7D
$GBGSV,4,3,13,10,24,075,35,09,00,000,18,07,19,049,35,05,11,119,35,1*7E
$GBGSV,4,4,13,14,00,000,,1*41
$GNGSA,A,3,02,04,05,06,07,09,13,16,29,30,,,0.8,0.5,0.7,1*3D
$GNGSA,A,3,67,68,69,77,78,84,85,,,,,,0.8,0.5,0.7,2*36
$GNGSA,A,3,02,07,12,19,27,30,33,,,,,,0.8,0.5,0.7,3*31
$GNGSA,A,3,07,10,23,24,25,29,30,32,33,,,,0.8,0.5,0.7,4*31
$GNVTG,,T,,M,0.0,N,0.0,K,A*3D
$GNRMC,122651.00,A,5159.367370,N,00422.977949,E,0.0,,191120,1.8,W,A,V*6A
$GNGGA,122651.00,5159.367370,N,00422.977949,E,1,12,0.5,-2.8,M,47.0,M,,*54
$GPGSV,3,1,10,02,37,247,37,04,08,077,40,05,42,298,30,06,18,198,25,1*67
$GPGSV,3,2,10,07,67,119,35,09,45,078,44,13,11,255,40,16,13,032,35,1*6C
$GPGSV,3,3,10,29,07,314,42,30,52,178,43,1*64
$GLGSV,3,1,09,78,49,129,40,77,39,045,31,79,11,172,39,69,39,299,34,1*76
$GLGSV,3,2,09,84,29,277,26,83,04,224,30,85,18,340,42,67,26,097,41,1*72
$GLGSV,3,3,09,68,73,043,34,1*4B
$GAGSV,3,1,09,02,07,022,35,07,37,088,45,11,05,340,39,12,31,293,32,7*79
$GAGSV,3,2,09,19,37,274,23,27,29,130,41,30,33,067,44,33,26,234,41,7*78
$GAGSV,3,3,09,26,00,000,,7*4E
$GBGSV,4,1,13,33,24,113,43,32,42,292,33,30,13,281,38,29,09,331,49,1*72
$GBGSV,4,2,13,27,02,233,33,25,54,126,44,24,30,050,40,23,21,180,30,1*78
$GBGSV,4,3,13,10,24,075,37,09,00,000,18,07,19,049,32,05,11,119,34,1*7A
$GBGSV,4,4,13,14,00,000,,1*41
$GNGSA,A,3,02,04,05,06,07,09,13,16,29,30,,,0.8,0.5,0.7,1*3D
$GNGSA,A,3,67,68,69,77,78,84,85,,,,,,0.8,0.5,0.7,2*36
$GNGSA,A,3,02,07,12,19,27,30,33,,,,,,0.8,0.5,0.7,3*31
$GNGSA,A,3,07,10,23,24,25,29,30,32,33,,,,0.8,0.5,0.7,4*31
$GNVTG,,T,,M,0.0,N,0.0,K,A*3D
$GNRMC,122652.00,A,5159.367368,N,00422.977948,E,0.0,,191120,1.8,W,A,V*61
$GNGGA,122652.00,5159.367368,N,00422.977948,E,1,12,0.5,-2.8,M,47.0,M,,*5F
$GPGSV,3,1,10,02,37,247,37,04,08,077,40,05,42,298,29,06,18,198,25,1*6F
$GPGSV,3,2,10,07,67,119,35,09,45,078,44,13,11,255,39,16,13,032,34,1*63
$GPGSV,3,3,10,29,07,314,42,30,52,178,43,1*64
$GLGSV,3,1,09,78,49,129,39,77,39,045,31,79,11,172,39,69,39,299,35,1*79
$GLGSV,3,2,09,84,29,277,25,83,04,224,30,85,18,340,42,67,26,097,41,1*71
$GLGSV,3,3,09,68,73,043,33,1*4C
$GAGSV,3,1,09,02,07,022,35,07,37,088,44,11,05,340,39,12,31,293,32,7*78
$GAGSV,3,2,09,27,29,130,40,30,33,067,44,33,26,234,41,19,37,274,,7*78
$GAGSV,3,3,09,26,00,000,,7*4E
$GBGSV,4,1,13,33,24,113,42,32,42,292,36,30,13,281,39,29,09,331,49,1*77
$GBGSV,4,2,13,27,02,233,34,25,54,126,45,24,30,050,42,23,21,180,30,1*7C
$GBGSV,4,3,13,10,24,075,37,09,00,000,18,07,19,049,35,05,11,119,33,1*7A
$GBGSV,4,4,13,14,00,000,,1*41
$GNGSA,A,3,02,04,05,06,07,09,13,16,29,30,,,0.8,0.5,0.7,1*3D
$GNGSA,A,3,67,68,69,77,78,84,85,,,,,,0.8,0.5,0.7,2*36
$GNGSA,A,3,02,07,12,19,27,30,33,,,,,,0.8,0.5,0.7,3*31
$GNGSA,A,3,07,10,23,24,25,29,30,32,33,,,,0.8,0.5,0.7,4*31
$GNVTG,,T,,M,0.0,N,0.0,K,A*3D
$GNRMC,122653.00,A,5159.367368,N,00422.977947,E,0.0,,191120,1.8,W,A,V*6F
$GNGGA,122653.00,5159.367368,N,00422.977947,E,1,12,0.5,-2.8,M,47.0,M,,*51
$GPGSV,3,1,10,02,37,247,34,04,08,077,38,05,42,298,30,06,18,198,23,1*6D
$GPGSV,3,2,10,07,67,119,34,09,45,078,44,13,11,255,38,16,13,032,33,1*64
$GPGSV,3,3,10,29,07,314,42,30,52,178,42,1*65
$GLGSV,3,1,09,78,49,129,39,77,39,045,32,79,11,172,38,69,39,299,36,1*78
$GLGSV,3,2,09,84,29,277,24,83,04,224,28,85,18,340,42,67,26,097,40,1*78
$GLGSV,3,3,09,68,73,043,32,1*4D
$GAGSV,3,1,09,02,07,022,35,07,37,088,43,11,05,340,39,12,31,293,32,7*7F
$GAGSV,3,2,09,19,37,274,24,27,29,130,39,30,33,067,44,33,26,234,40,7*71
$GAGSV,3,3,09,26,00,000,,7*4E
$GBGSV,4,1,13,33,24,113,41,32,42,292,35,30,13,281,37,29,09,331,49,1*79
$GBGSV,4,2,13,27,02,233,33,25,54,126,44,24,30,050,40,23,21,180,32,1*7A
$GBGSV,4,3,13,10,24,075,37,09,00,000,18,07,19,049,35,05,11,119,33,1*7A
$GBGSV,4,4,13,14,00,000,,1*41
$GNGSA,A,3,02,04,05,06,07,09,13,16,29,30,,,0.8,0.5,0.7,1*3D
$GNGSA,A,3,67,68,69,77,78,84,85,,,,,,0.8,0.5,0.7,2*36
$GNGSA,A,3,02,07,12,19,27,30,33,,,,,,0.8,0.5,0.7,3*31
$GNGSA,A,3,07,10,23,24,25,29,30,32,33,,,,0.8,0.5,0.7,4*31
$GNVTG,,T,,M,0.0,N,0.0,K,A*3D
$GNRMC,122654.00,A,5159.367368,N,00422.977947,E,0.0,,191120,1.8,W,A,V*68
$GNGGA,122654.00,5159.367368,N,00422.977947,E,1,12,0.5,-2.8,M,47.0,M,,*56
$GPGSV,3,1,10,02,37,247,36,04,08,077,39,05,42,298,33,06,18,198,23,1*6D
$GPGSV,3,2,10,07,67,119,37,09,45,078,44,13,11,255,39,16,13,032,34,1*61
$GPGSV,3,3,10,29,07,314,41,30,52,178,43,1*67
$GLGSV,3,1,09,78,49,129,37,77,39,045,32,79,11,172,38,69,39,299,36,1*76
$GLGSV,3,2,09,84,29,277,24,83,04,224,29,85,18,340,43,67,26,097,39,1*76
$GLGSV,3,3,09,68,73,043,30,1*4F
$GAGSV,3,1,09,02,07,022,35,07,37,088,44,11,05,340,38,12,31,293,33,7*78
$GAGSV,3,2,09,19,37,274,24,27,29,130,40,30,33,067,44,33,26,234,41,7*7E
$GAGSV,3,3,09,26,00,000,,7*4E
$GBGSV,4,1,13,33,24,113,42,32,42,292,34,30,13,281,39,29,09,331,49,1*75
$GBGSV,4,2,13,27,02,233,32,25,54,126,43,24,30,050,39,23,21,180,32,1*72
$GBGSV,4,3,13,10,24,075,35,09,00,000,18,07,19,049,34,05,11,119,32,1*78
$GBGSV,4,4,13,14,00,000,,1*41
$GNGSA,A,3,02,04,05,06,07,09,13,16,29,30,,,0.8,0.5,0.7,1*3D
$GNGSA,A,3,67,68,69,77,78,84,85,,,,,,0.8,0.5,0.7,2*36
$GNGSA,A,3,02,07,12,27,30,33,,,,,,,0.8,0.5,0.7,3*39
$GNGSA,A,3,07,10,23,24,25,29,30,32,33,,,,0.8,0.5,0.7,4*31
$GNVTG,,T,,M,0.0,N,0.0,K,A*3D
$GNRMC,122655.00,A,5159.367365,N,00422.977946,E,0.0,,191120,1.8,W,A,V*65
$GNGGA,122655.00,5159.367365,N,00422.977946,E,1,12,0.5,-2.8,M,47.0,M,,*5B
$GPGSV,3,1,10,02,37,247,37,04,08,077,36,05,42,298,33,06,18,198,31,1*60
$GPGSV,3,2,10,07,67,119,36,09,45,078,45,13,11,255,39,16,13,032,35,1*60
$GPGSV,3,3,10,29,07,314,42,30,52,178,41,1*66
$GLGSV,3,1,09,78,49,129,37,77,39,045,32,79,11,172,38,69,39,299,34,1*74
$GLGSV,3,2,09,84,29,277,24,83,04,224,28,85,18,340,44,67,26,097,35,1*7C
$GLGSV,3,3,09,68,73,043,34,1*4B
$GAGSV,3,1,09,02,07,022,33,07,37,088,42,11,05,340,38,12,31,293,32,7*79
$GAGSV,3,2,09,19,37,274,24,27,29,130,40,30,33,067,45,33,26,234,40,7*7E
$GAGSV,3,3,09,26,00,000,,7*4E
$GBGSV,4,1,13,33,24,113,43,32,42,292,34,30,13,281,39,29,09,331,49,1*74
$GBGSV,4,2,13,27,02,233,31,25,54,126,42,24,30,050,43,23,21,180,35,1*7A
$GBGSV,4,3,13,10,24,075,36,09,00,000,18,07,19,049,35,05,11,119,34,1*7C
$GBGSV,4,4,13,14,00,000,,1*41
$GNGSA,A,3,02,04,05,06,07,09,13,16,29,30,,,0.8,0.5,0.7,1*3D
$GNGSA,A,3,67,68,69,77,78,84,85,,,,,,0.8,0.5,0.7,2*36
$GNGSA,A,3,02,07,12,27,30,33,,,,,,,0.8,0.5,0.7,3*39
$GNGSA,A,3,07,10,23,24,25,29,30,32,33,,,,0.8,0.5,0.7,4*31
$GNVTG,,T,,M,0.0,N,0.0,K,A*3D
$GNRMC,122656.00,A,5159.367364,N,00422.977944,E,0.0,,191120,1.8,W,A,V*65
$GNGGA,122656.00,5159.367364,N,00422.977944,E,1,12,0.5,-2.8,M,47.0,M,,*5B
$GPGSV,3,1,10,02,37,247,37,04,08,077,35,05,42,298,32,06,18,198,29,1*6B
$GPGSV,3,2,10,07,67,119,35,09,45,078,45,13,11,255,39,16,13,032,30,1*66
$GPGSV,3,3,10,29,07,314,42,30,52,178,42,1*65
$GLGSV,3,1,09,78,49,129,38,77,39,045,33,79,11,172,36,69,39,299,33,1*73
$GLGSV,3,2,09,84,29,277,24,83,04,224,27,85,18,340,43,67,26,097,36,1*77
$GLGSV,3,3,09,68,73,043,32,1*4D
$GAGSV,3,1,09,02,07,022,32,07,37,088,42,11,05,340,38,12,31,293,34,7*7E
$GAGSV,3,2,09,19,37,274,24,27,29,130,39,30,33,067,44,33,26,234,41,7*70
$GAGSV,3,3,09,26,00,000,,7*4E
$GBGSV,4,1,13,33,24,113,43,32,42,292,35,30,13,281,37,29,09,331,49,1*7B
$GBGSV,4,2,13,27,02,233,31,25,54,126,42,24,30,050,44,23,21,180,33,1*7B
$GBGSV,4,3,13,10,24,075,38,09,00,000,18,07,19,049,38,05,11,119,35,1*7E
$GBGSV,4,4,13,14,00,000,,1*41
$GNGSA,A,3,02,04,05,06,07,09,13,16,29,30,,,0.8,0.5,0.7,1*3D
$GNGSA,A,3,67,68,69,77,78,84,85,,,,,,0.8,0.5,0.7,2*36
$GNGSA,A,3,02,07,12,27,30,33,,,,,,,0.8,0.5,0.7,3*39
$GNGSA,A,3,07,10,23,24,25,29,30,32,33,,,,0.8,0.5,0.7,4*31
$GNVTG,,T,,M,0.0,N,0.0,K,A*3D
$GNRMC,122657.00,A,5159.367363,N,00422.977945,E,0.0,,191120,1.8,W,A,V*62
$GNGGA,122657.00,5159.367363,N,00422.977945,E,1,12,0.5,-2.8,M,47.0,M,,*5C
$GPGSV,3,1,10,02,37,247,34,04,08,077,38,05,42,298,36,06,18,198,28,1*60
$GPGSV,3,2,10,07,67,119,33,09,45,078,45,13,11,255,38,16,13,032,29,1*69
$GPGSV,3,3,10,29,07,314,42,30,52,178,40,1*67
$GLGSV,3,1,09,78,49,129,40,77,39,045,36,79,11,172,36,69,39,299,35,1*7F
$GLGSV,3,2,09,84,29,277,21,83,04,224,24,85,18,340,43,67,26,097,38,1*7F
$GLGSV,3,3,09,68,73,043,29,1*47
$GAGSV,3,1,09,02,07,022,31,07,37,088,41,11,05,340,39,12,31,293,34,7*7F
$GAGSV,3,2,09,19,37,274,24,27,29,130,39,30,33,067,43,33,26,234,38,7*79
$GAGSV,3,3,09,26,00,000,,7*4E
$GBGSV,4,1,13,33,24,113,41,32,42,292,34,30,13,281,36,29,09,331,49,1*79
$GBGSV,4,2,13,27,02,233,27,25,54,126,41,24,30,050,45,23,21,180,31,1*7C
$GBGSV,4,3,13,10,24,075,36,09,00,000,18,07,19,049,39,05,11,119,34,1*70
$GBGSV,4,4,13,14,00,000,,1*41
$GNGSA,A,3,02,04,05,06,07,09,13,16,29,30,,,0.8,0.5,0.7,1*3D
$GNGSA,A,3,67,68,69,77,78,84,85,,,,,,0.8,0.5,0.7,2*36
$GNGSA,A,3,02,07,12,27,30,33,,,,,,,0.8,0.5,0.7,3*39
$GNGSA,A,3,07,10,23,24,25,29,30,32,33,,,,0.8,0.5,0.7,4*31
$GNVTG,,T,,M,0.0,N,0.0,K,A*3D
$GNRMC,122658.00,A,5159.367362,N,00422.977946,E,0.0,,191120,1.8,W,A,V*6F
$GNGGA,122658.00,5159.367362,N,00422.977946,E,1,12,0.5,-2.8,M,47.0,M,,*51
$GPGSV,3,1,10,02,37,247,33,04,08,077,38,05,42,298,36,06,18,198,26,1*69
$GPGSV,3,2,10,07,67,119,29,09,45,078,45,13,11,255,37,16,13,032,27,1*63
$GPGSV,3,3,10,29,07,314,43,30,52,178,41,1*67
$GLGSV,3,1,09,78,49,129,39,77,39,045,37,79,11,172,35,69,39,299,35,1*73
$GLGSV,3,2,09,84,29,277,23,83,04,224,24,85,18,340,44,67,26,097,37,1*75
$GLGSV,3,3,09,68,73,043,30,1*4F
$GAGSV,3,1,09,02,07,022,32,07,37,088,43,11,05,340,37,12,31,293,33,7*77
$GAGSV,3,2,09,19,37,274,24,27,29,130,37,30,33,067,43,33,26,234,37,7*78
$GAGSV,3,3,09,26,00,000,,7*4E
$GBGSV,4,1,13,33,24,113,41,32,42,292,36,30,13,281,34,29,09,331,49,1*79
$GBGSV,4,2,13,27,02,233,29,25,54,126,40,24,30,050,45,23,21,180,30,1*72
$GBGSV,4,3,13,10,24,075,36,09,00,000,18,07,19,049,39,05,11,119,33,1*77
$GBGSV,4,4,13,14,00,000,,1*41
$GNGSA,A,3,02,04,05,06,07,09,13,16,29,30,,,0.8,0.5,0.7,1*3D
$GNGSA,A,3,67,68,69,77,78,84,85,,,,,,0.8,0.5,0.7,2*36
$GNGSA,A,3,02,07,12,27,30,33,,,,,,,0.8,0.5,0.7,3*39
$GNGSA,A,3,07,10,23,24,25,29,30,32,33,,,,0.8,0.5,0.7,4*31
$GNVTG,,T,,M,0.0,N,0.0,K,A*3D
$GNRMC,122659.00,A,5159.367361,N,00422.977947,E,0.0,,191120,1.8,W,A,V*6C
$GNGGA,122659.00,5159.367361,N,00422.977947,E,1,12,0.5,-2.8,M,47.0,M,,*52
$GPGSV,3,1,10,02,37,247,30,04,08,077,35,05,42,298,36,06,18,198,28,1*69
$GPGSV,3,2,10,07,67,119,30,09,45,078,43,13,11,255,38,16,13,032,25,1*60
$GPGSV,3,3,10,29,07,314,43,30,52,178,41,1*67
$GLGSV,3,1,09,78,49,129,40,77,39,045,37,79,11,172,35,69,39,299,35,1*7D
$GLGSV,3,2,09,84,29,277,24,83,04,224,23,85,18,340,43,67,26,097,37,1*72
$GLGSV,3,3,09,68,73,043,29,1*47
$GAGSV,3,1,09,02,07,022,29,07,37,088,42,11,05,340,35,12,31,293,33,7*7E
$GAGSV,3,2,09,19,37,274,24,27,29,130,39,30,33,067,41,33,26,234,35,7*76
$GAGSV,3,3,09,26,00,000,,7*4E
$GBGSV,4,1,13,33,24,113,41,32,42,292,35,30,13,281,36,29,09,331,49,1*78
$GBGSV,4,2,13,27,02,233,29,25,54,126,39,24,30,050,46,23,21,180,31,1*7E
$GBGSV,4,3,13,10,24,075,37,07,19,049,39,05,11,119,32,09,00,000,,1*7E
$GBGSV,4,4,13,14,00,000,,1*41
$GNGSA,A,3,02,04,05,06,07,09,13,16,29,30,,,0.8,0.5,0.7,1*3D
$GNGSA,A,3,67,68,69,77,78,84,85,,,,,,0.8,0.5,0.7,2*36
$GNGSA,A,3,02,07,12,27,30,33,,,,,,,0.8,0.5,0.7,3*39
$GNGSA,A,3,07,10,23,24,25,29,30,32,33,,,,0.8,0.5,0.7,4*31
$GNVTG,,T,,M,0.0,N,0.0,K,A*3D
$GNRMC,122700.00,A,5159.367361,N,00422.977948,E,0.0,,191120,1.8,W,A,V*6E
$GNGGA,122700.00,5159.367361,N,00422.977948,E,1,12,0.5,-2.8,M,47.0,M,,*50
$GPGSV,3,1,10,02,37,247,32,04,08,077,36,05,42,298,34,06,18,198,28,1*6A
$GPGSV,3,2,10,07,67,119,34,09,45,078,44,13,11,255,38,29,07,314,43,1*6D
$GPGSV,3,3,10,30,52,178,41,16,13,032,,1*6E
$GLGSV,3,1,09,78,49,129,39,77,39,045,37,79,11,172,35,69,39,299,35,1*73
$GLGSV,3,2,09,84,29,277,23,83,04,224,24,85,18,340,42,67,26,097,38,1*7C
$GLGSV,3,3,09,68,73,043,31,1*4E
$GAGSV,3,1,09,02,07,022,32,07,37,088,42,11,05,340,36,12,31,293,33,7*77
$GAGSV,3,2,09,19,37,274,24,27,29,130,39,30,33,067,43,33,26,234,37,7*76
$GAGSV,3,3,09,26,00,000,,7*4E
$GBGSV,4,1,13,33,24,113,41,32,42,292,35,30,13,281,37,29,09,331,49,1*79
$GBGSV,4,2,13,27,02,233,28,25,54,126,42,24,30,050,46,23,21,180,31,1*73
$GBGSV,4,3,13,10,24,075,37,07,19,049,40,05,11,119,34,09,00,000,,1*76
$GBGSV,4,4,13,14,00,000,,1*41
$GNGSA,A,3,02,04,05,06,07,09,13,16,29,30,,,0.8,0.5,0.7,1*3D
$GNGSA,A,3,67,68,69,77,78,84,85,,,,,,0.8,0.5,0.7,2*36
$GNGSA,A,3,02,07,12,27,30,33,,,,,,,0.8,0.5,0.7,3*39
$GNGSA,A,3,07,10,23,24,25,29,30,32,33,,,,0.8,0.5,0.7,4*31
$GNVTG,,T,,M,0.0,N,0.0,K,A*3D
$GNRMC,122701.00,A,5159.367360,N,00422.977949,E,0.0,,191120,1.8,W,A,V*6F
$GNGGA,122701.00,5159.367360,N,00422.977949,E,1,12,0.5,-2.8,M,47.0,M,,*51
$GPGSV,3,1,10,02,37,247,27,04,08,077,37,05,42,298,34,06,18,198,28,1*6F
$GPGSV,3,2,10,07,67,119,33,09,45,078,43,13,11,255,38,16,13,032,36,1*61
$GPGSV,3,3,10,29,07,314,43,30,52,178,40,1*66
$GLGSV,3,1,09,78,49,129,38,77,39,045,37,79,11,172,35,69,39,299,35,1*72
$GLGSV,3,2,09,84,29,277,23,83,04,224,24,85,18,340,40,67,26,097,38,1*7E
$GLGSV,3,3,09,68,73,043,30,1*4F
$GAGSV,3,1,09,02,07,022,32,07,37,088,42,11,05,340,34,12,31,293,33,7*75
$GAGSV,3,2,09,19,37,274,24,27,29,130,40,30,33,067,43,33,26,234,36,7*79
$GAGSV,3,3,09,26,00,000,,7*4E
$GBGSV,4,1,13,33,24,113,40,32,42,292,35,30,13,281,36,29,09,331,50,1*71
$GBGSV,4,2,13,27,02,233,28,25,54,126,41,24,30,050,44,23,21,180,31,1*72
$GBGSV,4,3,13,10,24,075,37,07,19,049,40,05,11,119,34,09,00,000,,1*76
$GBGSV,4,4,13,14,00,000,,1*41
$GNGSA,A,3,02,04,05,06,07,09,13,16,29,30,,,0.8,0.5,0.7,1*3D
$GNGSA,A,3,67,68,69,77,78,84,85,,,,,,0.8,0.5,0.7,2*36
$GNGSA,A,3,02,07,12,27,30,33,,,,,,,0.8,0.5,0.7,3*39
$GNGSA,A,3,07,10,23,24,25,29,30,32,33,,,,0.8,0.5,0.7,4*31
$GNVTG,,T,,M,0.0,N,0.0,K,A*3D
$GNRMC,122702.00,A,5159.367359,N,00422.977949,E,0.0,,191120,1.8,W,A,V*66
$GNGGA,122702.00,5159.367359,N,00422.977949,E,1,12,0.5,-2.8,M,47.0,M,,*58
$GPGSV,3,1,10,02,37,247,35,04,08,077,37,05,42,298,32,06,18,198,27,1*65
$GPGSV,3,2,10,07,67,119,37,09,45,078,45,13,11,255,40,16,13,032,36,1*6C
$GPGSV,3,3,10,29,07,314,43,30,52,178,42,1*64
$GLGSV,3,1,09,78,49,129,39,77,39,045,36,79,11,172,37,69,39,299,35,1*70
$GLGSV,3,2,09,84,29,277,26,83,04,224,27,85,18,340,39,67,26,097,38,1*76
$GLGSV,3,3,09,68,73,043,31,1*4E
$GAGSV,3,1,09,02,07,022,33,07,37,088,43,11,05,340,35,12,31,293,32,7*75
$GAGSV,3,2,09,19,37,274,24,27,29,130,40,30,33,067,43,33,26,234,38,7*77
$GAGSV,3,3,09,26,00,000,,7*4E
$GBGSV,4,1,13,33,24,113,41,32,42,292,32,30,13,281,38,29,09,331,50,1*79
$GBGSV,4,2,13,27,02,233,31,25,54,126,43,24,30,050,45,23,21,180,34,1*7C
$GBGSV,4,3,13,10,24,075,37,07,19,049,39,05,11,119,34,09,00,000,,1*78
$GBGSV,4,4,13,14,00,000,,1*41
$GNGSA,A,3,02,04,05,06,07,09,13,16,29,30,,,0.8,0.5,0.7,1*3D
$GNGSA,A,3,67,68,69,77,78,84,85,,,,,,0.8,0.5,0.7,2*36
$GNGSA,A,3,02,07,12,27,30,33,,,,,,,0.8,0.5,0.7,3*39
$GNGSA,A,3,07,10,23,24,25,29,30,32,33,,,,0.8,0.5,0.7,4*31
$GNVTG,,T,,M,0.0,N,0.0,K,A*3D
$GNRMC,122703.00,A,5159.367359,N,00422.977949,E,0.0,,191120,1.8,W,A,V*67
$GNGGA,122703.00,5159.367359,N,00422.977949,E,1,12,0.5,-2.8,M,47.0,M,,*59
$GPGSV,3,1,10,02,37,247,32,04,08,077,37,05,42,298,32,06,18,198,29,1*6C
$GPGSV,3,2,10,07,67,119,34,09,45,078,44,13,11,255,38,16,13,032,38,1*6F
$GPGSV,3,3,10,29,07,314,44,30,52,178,41,1*60
$GLGSV,3,1,09,78,49,129,40,77,39,045,37,79,11,172,35,69,39,299,35,1*7D
$GLGSV,3,2,09,84,29,277,24,83,04,224,27,85,18,340,39,67,26,097,38,1*74
$GLGSV,3,3,09,68,73,043,30,1*4F
$GAGSV,3,1,09,02,07,022,34,07,37,088,42,11,05,340,34,12,31,293,32,7*72
$GAGSV,3,2,09,19,37,274,24,27,29,130,40,30,33,067,43,33,26,234,37,7*78
$GAGSV,3,3,09,26,00,000,,7*4E
$GBGSV,4,1,13,33,24,113,41,32,42,292,35,30,13,281,35,29,09,331,48,1*7A
$GBGSV,4,2,13,27,02,233,28,25,54,126,43,24,30,050,46,23,21,180,32,1*71
$GBGSV,4,3,13,10,24,075,37,07,19,049,39,05,11,119,33,09,00,000,,1*7F
$GBGSV,4,4,13,14,00,000,,1*41
$GNGSA,A,3,02,04,05,06,07,09,13,16,29,30,,,0.8,0.5,0.7,1*3D
$GNGSA,A,3,67,68,69,77,78,84,85,,,,,,0.8,0.5,0.7,2*36
$GNGSA,A,3,02,07,12,27,30,33,,,,,,,0.8,0.5,0.7,3*39
$GNGSA,A,3,07,10,23,24,25,29,30,32,33,,,,0.8,0.5,0.7,4*31
$GNVTG,,T,,M,0.0,N,0.0,K,A*3D
$GNRMC,122704.00,A,5159.367359,N,00422.977947,E,0.0,,191120,1.8,W,A,V*6E
$GNGGA,122704.00,5159.367359,N,00422.977947,E,1,12,0.5,-2.8,M,47.0,M,,*50
$GPGSV,3,1,10,02,37,247,29,04,08,077,36,05,42,298,33,06,18,198,27,1*68
$GPGSV,3,2,10,07,67,119,34,09,45,078,44,13,11,255,37,16,13,032,38,1*60
$GPGSV,3,3,10,29,07,314,43,30,52,178,40,1*66
$GLGSV,3,1,09,78,49,129,39,77,39,045,36,79,11,172,34,69,39,299,37,1*71
$GLGSV,3,2,09,84,29,277,22,83,04,224,25,85,18,340,40,67,26,097,38,1*7E
$GLGSV,3,3,09,68,73,043,26,1*48
$GAGSV,3,1,09,02,07,022,32,07,37,088,42,11,05,340,35,12,31,293,34,7*73
$GAGSV,3,2,09,19,37,274,24,27,29,130,39,30,33,067,43,33,26,234,36,7*77
$GAGSV,3,3,09,26,00,000,,7*4E
$GBGSV,4,1,13,33,24,113,41,32,42,292,34,30,13,281,38,29,09,331,47,1*79
$GBGSV,4,2,13,27,02,233,30,25,54,126,41,24,30,050,46,23,21,180,32,1*7A
$GBGSV,4,3,13,10,24,075,38,07,19,049,40,05,11,119,34,09,00,000,,1*79
$GBGSV,4,4,13,14,00,000,,1*41
$GNGSA,A,3,02,04,05,06,07,09,13,16,29,30,,,0.8,0.5,0.7,1*3D
$GNGSA,A,3,67,68,69,77,78,84,85,,,,,,0.8,0.5,0.7,2*36
$GNGSA,A,3,02,07,12,27,30,33,,,,,,,0.8,0.5,0.7,3*39
$GNGSA,A,3,07,10,23,24,25,29,30,32,33,,,,0.8,0.5,0.7,4*31
$GNVTG,,T,,M,0.0,N,0.0,K,A*3D
$GNRMC,122705.00,A,5159.367359,N,00422.977946,E,0.0,,191120,1.8,W,A,V*6E
$GNGGA,122705.00,5159.367359,N,00422.977946,E,1,12,0.5,-2.8,M,47.0,M,,*50
$GPGSV,3,1,10,02,37,247,30,04,08,077,36,05,42,298,34,06,18,198,28,1*68
$GPGSV,3,2,10,07,67,119,33,09,45,078,44,13,11,255,38,16,13,032,39,1*69
$GPGSV,3,3,10,29,07,314,43,30,52,178,40,1*66
$GLGSV,3,1,09,78,49,129,39,77,39,045,37,79,11,172,35,69,39,299,35,1*73
$GLGSV,3,2,09,84,29,277,22,83,04,224,27,85,18,340,40,67,26,097,37,1*73
$GLGSV,3,3,09,68,73,043,26,1*48
$GAGSV,3,1,09,02,07,022,33,07,37,088,41,11,05,340,35,12,31,293,33,7*76
$GAGSV,3,2,09,19,37,274,24,27,29,130,39,30,33,067,43,33,26,234,35,7*74
$GAGSV,3,3,09,26,00,000,,7*4E
$GBGSV,4,1,13,33,24,113,41,32,42,292,35,30,13,281,37,29,09,331,46,1*76
$GBGSV,4,2,13,27,02,233,31,25,54,126,41,24,30,050,46,23,21,180,32,1*7B
$GBGSV,4,3,13,10,24,075,37,07,19,049,40,05,11,119,32,09,00,000,,1*70
$GBGSV,4,4,13,14,00,000,,1*41
$GNGSA,A,3,02,04,05,06,07,09,13,16,29,30,,,0.8,0.5,0.7,1*3D
$GNGSA,A,3,67,68,69,77,78,79,84,85,,,,,0.8,0.5,0.7,2*38
$GNGSA,A,3,02,07,12,27,30,33,,,,,,,0.8,0.5,0.7,3*39
$GNGSA,A,3,07,10,23,24,25,29,30,32,33,,,,0.8,0.5,0.7,4*31
$GNVTG,,T,,M,0.0,N,0.0,K,A*3D
$GNRMC,122706.00,A,5159.367369,N,00422.977943,E,0.0,,191120,1.8,W,A,V*6B
$GNGGA,122706.00,5159.367369,N,00422.977943,E,1,12,0.5,-2.8,M,47.0,M,,*55
$GPGSV,3,1,10,02,37,247,33,04,08,077,37,05,42,298,33,06,18,198,29,1*6C
$GPGSV,3,2,10,07,67,119,35,09,45,078,44,13,11,255,38,16,13,032,39,1*6F
$GPGSV,3,3,10,29,07,314,43,30,52,178,41,1*67
$GLGSV,3,1,09,78,49,129,39,77,39,045,37,79,11,172,34,69,39,299,36,1*71
$GLGSV,3,2,09,84,29,277,21,83,04,224,25,85,18,340,40,67,26,097,36,1*73
$GLGSV,3,3,09,68,73,043,30,1*4F
$GAGSV,3,1,09,02,07,022,31,07,37,088,41,11,05,340,36,12,31,293,32,7*76
$GAGSV,3,2,09,19,37,274,24,27,29,130,40,30,33,067,44,33,26,234,37,7*7F
$GAGSV,3,3,09,26,00,000,,7*4E
$GBGSV,4,1,13,33,24,113,41,32,42,292,35,30,13,281,37,29,09,331,46,1*76
$GBGSV,4,2,13,27,02,233,29,25,54,126,42,24,30,050,46,23,21,180,34,1*77
$GBGSV,4,3,13,10,24,075,36,07,19,049,40,05,11,119,33,09,00,000,,1*70
$GBGSV,4,4,13,14,00,000,,1*41
$GNGSA,A,3,02,04,05,06,07,09,13,16,29,30,,,0.8,0.5,0.7,1*3D
$GNGSA,A,3,67,68,69,77,78,79,84,85,,,,,0.8,0.5,0.7,2*38
$GNGSA,A,3,02,07,12,27,30,33,,,,,,,0.8,0.5,0.7,3*39
$GNGSA,A,3,07,10,23,24,25,29,30,32,33,,,,0.8,0.5,0.7,4*31
$GNVTG,,T,,M,0.0,N,0.0,K,A*3D
$GNRMC,122707.00,A,5159.367368,N,00422.977943,E,0.0,,191120,1.8,W,A,V*6B
$GNGGA,122707.00,5159.367368,N,00422.977943,E,1,12,0.5,-2.8,M,47.0,M,,*55
$GPGSV,3,1,10,02,37,247,36,04,08,077,36,05,42,298,33,06,18,198,26,1*67
$GPGSV,3,2,10,07,67,119,36,09,45,078,45,13,11,255,39,16,13,032,38,1*6D
$GPGSV,3,3,10,29,07,314,43,30,52,178,43,1*65
$GLGSV,3,1,09,78,49,129,40,77,39,045,36,79,11,172,35,69,39,299,34,1*7D
$GLGSV,3,2,09,84,29,277,22,83,04,224,27,85,18,340,40,67,26,097,38,1*7C
$GLGSV,3,3,09,68,73,043,30,1*4F
$GAGSV,3,1,09,02,07,022,32,07,37,088,42,11,05,340,36,12,31,293,30,7*74
$GAGSV,3,2,09,19,37,274,24,27,29,130,40,30,33,067,44,33,26,234,39,7*71
$GAGSV,3,3,09,26,00,000,,7*4E
$GBGSV,4,1,13,33,24,113,43,32,42,292,33,30,13,281,41,29,09,331,46,1*73
$GBGSV,4,2,13,27,02,233,32,25,54,126,43,24,30,050,46,23,21,180,36,1*7E
$GBGSV,4,3,13,10,24,075,37,07,19,049,39,05,11,119,34,09,00,000,,1*78
$GBGSV,4,4,13,14,00,000,,1*41
$GNGSA,A,3,02,04,05,06,07,09,13,16,29,30,,,0.8,0.5,0.7,1*3D
$GNGSA,A,3,67,68,69,77,78,79,84,85,,,,,0.8,0.5,0.7,2*38
$GNGSA,A,3,02,07,12,27,30,33,,,,,,,0.8,0.5,0.7,3*39
$GNGSA,A,3,07,10,23,24,25,29,30,32,33,,,,0.8,0.5,0.7,4*31
$GNVTG,,T,,M,0.0,N,0.0,K,A*3D
$GNRMC,122708.00,A,5159.367367,N,00422.977943,E,0.0,,191120,1.8,W,A,V*6B
$GNGGA,122708.00,5159.367367,N,00422.977943,E,1,12,0.5,-2.8,M,47.0,M,,*55
$GPGSV,3,1,10,02,37,247,36,04,08,077,36,05,42,298,34,06,18,198,23,1*65
$GPGSV,3,2,10,07,67,119,35,09,45,078,45,13,11,255,40,16,13,032,39,1*61
$GPGSV,3,3,10,29,07,314,43,30,52,178,42,1*64
$GLGSV,3,1,09,78,49,129,40,77,39,045,36,79,11,172,35,69,39,299,33,1*7A
$GLGSV,3,2,09,84,29,277,24,83,04,224,29,85,18,340,40,67,26,097,38,1*74
$GLGSV,3,3,09,68,73,043,31,1*4E
$GAGSV,3,1,09,02,07,022,32,07,37,088,42,11,05,340,35,12,31,293,32,7*75
$GAGSV,3,2,09,19,37,274,24,27,29,130,40,30,33,067,43,33,26,234,38,7*77
$GAGSV,3,3,09,26,00,000,,7*4E
$GBGSV,4,1,13,33,24,113,42,32,42,292,33,30,13,281,40,29,09,331,45,1*70
$GBGSV,4,2,13,27,02,233,33,25,54,126,43,24,30,050,46,23,21,180,35,1*7C
$GBGSV,4,3,13,10,24,075,37,07,19,049,39,05,11,119,32,09,00,000,,1*7E
$GBGSV,4,4,13,14,00,000,,1*41
$GNGSA,A,3,02,04,05,06,07,09,13,16,29,30,,,0.8,0.5,0.7,1*3D
$GNGSA,A,3,67,68,69,77,78,79,84,85,,,,,0.8,0.5,0.7,2*38
$GNGSA,A,3,02,07,12,27,30,33,,,,,,,0.8,0.5,0.7,3*39
$GNGSA,A,3,07,10,23,24,25,29,30,32,33,,,,0.8,0.5,0.7,4*31
$GNVTG,,T,,M,0.0,N,0.0,K,A*3D
$GNRMC,122709.00,A,5159.367366,N,00422.977944,E,0.0,,191120,1.8,W,A,V*6C
$GNGGA,122709.00,5159.367366,N,00422.977944,E,1,12,0.5,-2.8,M,47.0,M,,*52
$GPGSV,3,1,10,02,37,247,36,04,08,077,36,05,42,298,35,06,18,198,27,1*60
$GPGSV,3,2,10,07,67,119,37,09,45,078,45,13,11,255,40,16,13,032,38,1*62
$GPGSV,3,3,10,29,07,314,44,30,52,178,42,1*63
$GLGSV,3,1,09,78,49,129,40,77,39,045,36,79,11,172,37,69,39,299,32,1*79
$GLGSV,3,2,09,84,29,277,26,83,04,224,28,85,18,340,39,67,26,097,38,1*79
$GLGSV,3,3,09,68,73,043,32,1*4D
$GAGSV,3,1,09,02,07,022,32,07,37,088,43,11,06,340,35,12,31,293,32,7*77
$GAGSV,3,2,09,19,37,274,24,27,29,130,40,30,33,067,43,33,26,234,39,7*76
$GAGSV,3,3,09,26,00,000,,7*4E
$GBGSV,4,1,13,33,24,113,42,32,42,292,34,30,13,281,40,29,09,331,46,1*74
$GBGSV,4,2,13,27,02,233,33,25,54,126,43,24,30,050,46,23,21,180,35,1*7C
$GBGSV,4,3,13,10,24,075,38,07,19,049,39,05,11,119,33,09,00,000,,1*70
$GBGSV,4,4,13,14,00,000,,1*41
$GNGSA,A,3,02,04,05,06,07,09,13,16,29,30,,,0.8,0.4,0.7,1*3C
$GNGSA,A,3,67,68,69,77,78,79,84,85,,,,,0.8,0.4,0.7,2*39
$GNGSA,A,3,02,07,11,12,27,30,33,,,,,,0.8,0.4,0.7,3*38
$GNGSA,A,3,07,10,23,24,25,29,30,32,33,,,,0.8,0.4,0.7,4*30
$GNVTG,,T,,M,0.0,N,0.0,K,A*3D
$GNRMC,122710.00,A,5159.367367,N,00422.977943,E,0.0,,191120,1.8,W,A,V*62
$GNGGA,122710.00,5159.367367,N,00422.977943,E,1,12,0.4,-2.8,M,47.0,M,,*5D
$GPGSV,3,1,10,02,37,247,33,04,08,077,37,05,42,298,35,06,18,198,28,1*6B
$GPGSV,3,2,10,07,67,119,36,09,45,078,45,13,11,255,40,16,13,032,37,1*6C
$GPGSV,3,3,10,29,07,314,43,30,52,178,42,1*64
$GLGSV,3,1,09,78,49,129,40,77,39,045,36,79,11,172,36,69,39,299,31,1*7B
$GLGSV,3,2,09,84,29,277,25,83,04,224,28,85,18,340,39,67,26,097,38,1*7A
$GLGSV,3,3,09,68,73,043,31,1*4E
$GAGSV,3,1,09,02,07,022,31,07,37,088,43,11,06,340,35,12,31,293,32,7*74
$GAGSV,3,2,09,19,37,274,24,27,29,130,39,30,33,067,43,33,26,234,39,7*78
$GAGSV,3,3,09,26,00,000,,7*4E
$GBGSV,4,1,13,33,24,113,42,32,42,292,34,30,13,281,39,29,09,331,50,1*7D
$GBGSV,4,2,13,27,02,233,31,25,54,126,43,24,30,050,46,23,21,180,34,1*7F
$GBGSV,4,3,13,10,24,075,37,07,19,049,39,05,11,119,33,09,00,000,,1*7F
$GBGSV,4,4,13,14,00,000,,1*41
$GNGSA,A,3,02,04,05,06,07,09,13,16,29,30,,,0.8,0.4,0.7,1*3C
$GNGSA,A,3,67,68,69,77,78,79,84,85,,,,,0.8,0.4,0.7,2*39
$GNGSA,A,3,02,07,11,12,27,30,33,,,,,,0.8,0.4,0.7,3*38
$GNGSA,A,3,07,10,23,24,25,29,30,32,33,,,,0.8,0.4,0.7,4*30
$GNVTG,,T,,M,0.0,N,0.0,K,A*3D
$GNRMC,122711.00,A,5159.367366,N,00422.977943,E,0.0,,191120,1.8,W,A,V*62
$GNGGA,122711.00,5159.367366,N,00422.977943,E,1,12,0.4,-2.8,M,47.0,M,,*5D
$GPGSV,3,1,10,02,37,247,34,04,08,077,37,05,42,298,34,06,18,198,26,1*63
$GPGSV,3,2,10,07,67,119,36,09,45,078,45,13,11,255,40,16,13,032,33,1*68
$GPGSV,3,3,10,29,07,314,43,30,52,178,42,1*64
$GLGSV,3,1,09,78,49,129,40,77,39,045,36,79,11,172,36,69,39,299,32,1*78
$GLGSV,3,2,09,84,29,277,26,83,04,224,29,85,18,340,44,67,26,097,38,1*72
$GLGSV,3,3,09,68,73,043,28,1*46
$GAGSV,3,1,09,02,07,022,31,07,37,088,43,11,06,340,39,12,31,293,32,7*78
$GAGSV,3,2,09,19,37,274,24,27,29,130,40,30,33,067,43,33,26,234,39,7*76
$GAGSV,3,3,09,26,00,000,,7*4E
$GBGSV,4,1,13,33,24,113,41,32,42,292,34,30,13,281,39,29,09,331,49,1*76
$GBGSV,4,2,13,27,02,233,31,25,54,126,43,24,30,050,46,23,21,180,35,1*7E
$GBGSV,4,3,13,10,24,075,37,07,19,049,40,05,11,119,34,09,00,000,,1*76
$GBGSV,4,4,13,14,00,000,,1*41
$GNGSA,A,3,02,04,05,06,07,09,13,16,29,30,,,0.8,0.4,0.7,1*3C
$GNGSA,A,3,67,68,69,77,78,84,85,,,,,,0.8,0.4,0.7,2*37
$GNGSA,A,3,02,07,11,12,27,30,33,,,,,,0.8,0.4,0.7,3*38
$GNGSA,A,3,07,10,23,24,25,29,30,32,33,,,,0.8,0.4,0.7,4*30
$GNVTG,,T,,M,0.0,N,0.0,K,A*3D
$GNRMC,122712.00,A,5159.367368,N,00422.977940,E,0.0,,191120,1.8,W,A,V*6C
$GNGGA,122712.00,5159.367368,N,00422.977940,E,1,12,0.4,-2.8,M,47.0,M,,*53
$GPGSV,3,1,10,02,37,247,28,04,08,077,36,05,42,298,35,06,18,198,27,1*6F
$GPGSV,3,2,10,07,67,119,33,09,45,078,43,13,11,255,37,16,13,032,33,1*6B
$GPGSV,3,3,10,29,07,314,44,30,52,178,40,1*61
$GLGSV,3,1,09,78,49,129,40,77,39,045,37,79,11,172,34,69,39,299,34,1*7D
$GLGSV,3,2,09,84,29,277,23,83,04,224,26,85,18,340,44,67,26,097,37,1*77
$GLGSV,3,3,09,68,73,043,26,1*48
$GAGSV,3,1,09,02,07,022,25,07,37,088,42,11,06,340,38,12,31,293,34,7*7B
$GAGSV,3,2,09,19,37,274,24,27,29,130,39,30,33,067,43,33,26,234,36,7*77
$GAGSV,3,3,09,26,00,000,,7*4E
$GBGSV,4,1,13,33,24,113,40,32,42,292,35,30,13,281,36,29,09,331,49,1*79
$GBGSV,4,2,13,27,02,233,29,25,54,126,41,24,30,050,45,23,21,180,32,1*71
$GBGSV,4,3,13,10,24,075,37,07,19,049,39,05,11,119,34,09,00,000,,1*78
$GBGSV,4,4,13,14,00,000,,1*41
$GNGSA,A,3,02,04,05,06,07,09,13,16,29,30,,,0.8,0.4,0.7,1*3C
$GNGSA,A,3,67,68,69,77,78,84,85,,,,,,0.8,0.4,0.7,2*37
$GNGSA,A,3,02,07,11,12,27,30,33,,,,,,0.8,0.4,0.7,3*38
$GNGSA,A,3,07,10,23,24,25,29,30,32,33,,,,0.8,0.4,0.7,4*30
$GNVTG,,T,,M,0.0,N,0.0,K,A*3D
$GNRMC,122713.00,A,5159.367367,N,00422.977940,E,0.0,,191120,1.8,W,A,V*62
$GNGGA,122713.00,5159.367367,N,00422.977940,E,1,12,0.4,-2.8,M,47.0,M,,*5D
$GPGSV,3,1,10,02,37,247,29,04,08,077,36,05,42,298,35,06,18,198,27,1*6E
$GPGSV,3,2,10,07,67,119,33,09,45,078,44,13,11,255,38,16,13,032,31,1*61
$GPGSV,3,3,10,29,07,314,44,30,52,178,41,1*60
$GLGSV,3,1,09,78,49,129,40,77,39,045,37,79,11,172,34,69,39,299,33,1*7A
$GLGSV,3,2,09,84,29,277,22,83,04,224,26,85,18,340,43,67,26,097,37,1*71
$GLGSV,3,3,09,68,73,043,29,1*47
$GAGSV,3,1,09,02,07,022,31,07,37,088,42,11,06,340,38,12,31,293,34,7*7E
$GAGSV,3,2,09,19,37,274,24,27,29,130,39,30,33,067,43,33,26,234,36,7*77
$GAGSV,3,3,09,26,00,000,,7*4E
$GBGSV,4,1,13,33,24,113,41,32,42,292,36,30,13,281,37,29,09,331,49,1*7A
$GBGSV,4,2,13,27,02,233,29,25,54,126,42,24,30,050,46,23,21,180,30,1*73
$GBGSV,4,3,13,10,24,075,37,07,19,049,40,05,11,119,34,09,00,000,,1*76
$GBGSV,4,4,13,14,00,000,,1*41
$GNGSA,A,3,02,04,05,06,07,09,13,16,29,30,,,0.8,0.4,0.7,1*3C
$GNGSA,A,3,67,68,69,77,78,84,85,,,,,,0.8,0.4,0.7,2*37
$GNGSA,A,3,02,07,11,12,27,30,33,,,,,,0.8,0.4,0.7,3*38
$GNGSA,A,3,07,10,23,24,25,29,30,32,33,,,,0.8,0.4,0.7,4*30
$GNVTG,,T,,M,0.0,N,0.0,K,A*3D
$GNRMC,122714.00,A,5159.367371,N,00422.977938,E,0.0,,191120,1.8,W,A,V*6D
$GNGGA,122714.00,5159.367371,N,00422.977938,E,1,12,0.4,-2.8,M,47.0,M,,*52
$GPGSV,3,1,10,02,37,247,30,04,08,077,37,05,42,298,34,06,18,198,27,1*66
$GPGSV,3,2,10,07,67,119,33,09,45,078,44,13,11,255,38,16,13,032,34,1*64
$GPGSV,3,3,10,29,07,314,44,30,52,178,41,1*60
$GLGSV,3,1,09,78,49,129,39,77,39,045,37,79,11,172,34,69,39,299,32,1*75
$GLGSV,3,2,09,84,29,277,22,83,04,224,25,85,18,340,43,67,26,097,37,1*72
$GLGSV,3,3,09,68,73,043,27,1*49
$GAGSV,3,1,09,02,07,022,25,07,37,088,42,11,06,340,38,12,31,293,34,7*7B
$GAGSV,3,2,09,19,37,274,24,27,29,130,40,30,33,067,43,33,26,234,37,7*78
$GAGSV,3,3,09,26,00,000,,7*4E
$GBGSV,4,1,13,33,24,113,40,32,42,292,36,30,13,281,37,29,09,331,49,1*7B
$GBGSV,4,2,13,27,02,233,29,25,54,126,41,24,30,050,45,23,21,180,31,1*72
$GBGSV,4,3,13,10,24,075,37,07,19,049,40,05,11,119,34,09,00,000,,1*76
$GBGSV,4,4,13,14,00,000,,1*41
$GNGSA,A,3,02,04,05,06,07,09,13,16,29,30,,,0.8,0.4,0.7,1*3C
$GNGSA,A,3,67,68,69,77,78,84,85,,,,,,0.8,0.4,0.7,2*37
$GNGSA,A,3,02,07,11,12,27,30,33,,,,,,0.8,0.4,0.7,3*38
$GNGSA,A,3,07,10,23,24,25,29,30,32,33,,,,0.8,0.4,0.7,4*30
$GNVTG,,T,,M,0.0,N,0.0,K,A*3D
$GNRMC,122715.00,A,5159.367369,N,00422.977938,E,0.0,,191120,1.8,W,A,V*65
$GNGGA,122715.00,5159.367369,N,00422.977938,E,1,12,0.4,-2.8,M,47.0,M,,*5A
$GPGSV,3,1,10,02,37,247,30,04,08,077,37,05,42,298,35,06,18,198,23,1*63
$GPGSV,3,2,10,07,67,119,33,09,45,078,44,13,11,255,38,16,13,032,38,1*68
$GPGSV,3,3,10,29,07,314,44,30,52,178,40,1*61
$GLGSV,3,1,09,78,49,129,38,77,39,045,37,79,11,172,33,69,39,299,32,1*73
$GLGSV,3,2,09,84,29,277,20,83,04,224,25,85,18,340,44,67,26,097,36,1*76
$GLGSV,3,3,09,68,73,043,28,1*46
$GAGSV,3,1,09,02,07,022,24,07,37,088,41,11,06,340,39,12,31,293,34,7*78
$GAGSV,3,2,09,19,37,274,24,27,29,130,40,30,33,067,43,33,26,234,36,7*79
$GAGSV,3,3,09,26,00,000,,7*4E
$GBGSV,4,1,13,33,24,113,41,32,42,292,35,30,13,281,36,29,09,331,50,1*70
$GBGSV,4,2,13,27,02,233,27,25,54,126,41,24,30,050,46,23,21,180,30,1*7E
$GBGSV,4,3,13,10,24,075,36,07,19,049,39,05,11,119,34,09,00,000,,1*79
$GBGSV,4,4,13,14,00,000,,1*41
$GNGSA,A,3,02,04,05,06,07,09,13,16,29,30,,,0.8,0.4,0.6,1*3D
$GNGSA,A,3,67,68,69,77,78,84,85,,,,,,0.8,0.4,0.6,2*36
$GNGSA,A,3,02,07,11,12,19,27,30,33,,,,,0.8,0.4,0.6,3*31
$GNGSA,A,3,07,10,23,24,25,29,30,32,33,,,,0.8,0.4,0.6,4*31
$GNVTG,,T,,M,0.0,N,0.0,K,A*3D
$GNRMC,122716.00,A,5159.367366,N,00422.977938,E,0.0,,191120,1.8,W,A,V*69
$GNGGA,122716.00,5159.367366,N,00422.977938,E,1,12,0.4,-2.8,M,47.0,M,,*56
$GPGSV,3,1,10,02,37,247,31,04,08,077,37,05,42,298,34,06,18,198,28,1*68
$GPGSV,3,2,10,07,67,119,34,09,45,078,44,13,11,255,39,16,13,032,37,1*61
$GPGSV,3,3,10,29,07,314,43,30,52,178,41,1*67
$GLGSV,3,1,09,78,49,129,39,77,39,045,37,79,11,172,35,69,39,299,31,1*77
$GLGSV,3,2,09,84,29,277,20,83,04,224,25,85,18,340,45,67,26,097,37,1*76
$GLGSV,3,3,09,68,73,043,31,1*4E
$GAGSV,3,1,09,02,07,022,24,07,37,088,42,11,06,340,38,12,31,293,33,7*7D
$GAGSV,3,2,09,19,37,274,24,27,29,130,39,30,33,067,42,33,26,234,36,7*76
$GAGSV,3,3,09,26,00,000,,7*4E
$GBGSV,4,1,13,33,24,113,41,32,42,292,35,30,13,281,38,29,09,331,50,1*7E
$GBGSV,4,2,13,27,02,233,25,25,54,126,41,24,30,050,46,23,21,180,30,1*7C
$GBGSV,4,3,13,10,24,075,37,07,19,049,40,05,11,119,34,09,00,000,,1*76
$GBGSV,4,4,13,14,00,000,,1*41
$GNGSA,A,3,02,04,05,06,07,09,13,16,29,30,,,0.8,0.4,0.6,1*3D
$GNGSA,A,3,67,68,69,77,78,84,85,,,,,,0.8,0.4,0.6,2*36
$GNGSA,A,3,02,07,11,12,19,27,30,33,,,,,0.8,0.4,0.6,3*31
$GNGSA,A,3,07,10,23,24,25,29,30,32,33,,,,0.8,0.4,0.6,4*31
$GNVTG,,T,,M,0.0,N,0.0,K,A*3D
$GNRMC,122717.00,A,5159.367366,N,00422.977938,E,0.0,,191120,1.8,W,A,V*68
$GNGGA,122717.00,5159.367366,N,00422.977938,E,1,12,0.4,-2.8,M,47.0,M,,*57
$GPGSV,3,1,10,02,37,247,35,04,08,077,37,05,42,298,32,06,18,198,29,1*6B
$GPGSV,3,2,10,07,67,119,36,09,45,078,45,13,11,255,41,16,13,032,35,1*6F
$GPGSV,3,3,10,29,07,314,43,30,52,178,42,1*64
$GLGSV,3,1,09,78,49,129,41,77,39,045,37,79,11,172,36,69,39,299,27,1*7C
$GLGSV,3,2,09,84,29,277,22,83,04,224,27,85,18,340,44,67,26,097,39,1*79
$GLGSV,3,3,09,68,73,043,28,1*46
$GAGSV,3,1,09,02,07,022,27,07,37,088,43,11,06,340,37,12,31,293,32,7*71
$GAGSV,3,2,09,19,37,274,20,27,29,130,40,30,33,067,42,33,26,234,39,7*73
$GAGSV,3,3,09,26,00,000,,7*4E
$GBGSV,4,1,13,33,24,113,41,32,42,292,35,30,13,281,39,29,09,331,49,1*77
$GBGSV,4,2,13,27,02,233,28,25,54,126,44,24,30,050,45,23,21,180,34,1*73
$GBGSV,4,3,13,10,24,075,37,07,19,049,40,05,11,119,34,09,00,000,,1*76
$GBGSV,4,4,13,14,00,000,,1*41
$GNGSA,A,3,02,04,05,06,07,09,13,16,29,30,,,0.8,0.4,0.6,1*3D
$GNGSA,A,3,67,68,69,77,78,84,85,,,,,,0.8,0.4,0.6,2*36
$GNGSA,A,3,02,07,11,12,19,27,30,33,,,,,0.8,0.4,0.6,3*31
$GNGSA,A,3,07,10,23,24,25,29,30,32,33,,,,0.8,0.4,0.6,4*31
$GNVTG,,T,,M,0.0,N,0.0,K,A*3D
$GNRMC,122718.00,A,5159.367367,N,00422.977936,E,0.0,,191120,1.8,W,A,V*68
$GNGGA,122718.00,5159.367367,N,00422.977936,E,1,12,0.4,-2.8,M,47.0,M,,*57
$GPGSV,3,1,10,02,37,247,35,04,08,077,38,05,42,298,32,06,18,198,26,1*6B
$GPGSV,3,2,10,07,67,119,35,09,45,078,45,13,11,255,41,16,13,032,36,1*6F
$GPGSV,3,3,10,29,07,314,43,30,52,178,42,1*64
$GLGSV,3,1,09,78,49,129,40,77,39,045,37,79,11,172,36,69,39,299,26,1*7C
$GLGSV,3,2,09,84,29,277,22,83,04,224,28,85,18,340,44,67,26,097,39,1*76
$GLGSV,3,3,09,68,73,043,27,1*49
$GAGSV,3,1,09,02,07,022,29,07,37,088,43,11,06,340,38,12,31,293,33,7*71
$GAGSV,3,2,09,19,37,274,22,27,29,130,41,30,33,067,42,33,26,234,40,7*7E
$GAGSV,3,3,09,26,00,000,,7*4E
$GBGSV,4,1,13,33,24,113,41,32,42,292,35,30,13,281,40,29,09,331,49,1*79
$GBGSV,4,2,13,27,02,233,29,25,54,126,43,24,30,050,45,23,21,180,36,1*77
$GBGSV,4,3,13,10,24,075,37,07,19,049,40,05,11,119,35,09,00,000,,1*77
$GBGSV,4,4,13,14,00,000,,1*41
$GNGSA,A,3,02,04,05,06,07,09,13,16,29,30,,,0.8,0.4,0.6,1*3D
$GNGSA,A,3,67,68,69,77,78,84,85,,,,,,0.8,0.4,0.6,2*36
$GNGSA,A,3,02,07,11,12,19,27,30,33,,,,,0.8,0.4,0.6,3*31
$GNGSA,A,3,07,10,23,24,25,29,30,32,33,,,,0.8,0.4,0.6,4*31
$GNVTG,,T,,M,0.0,N,0.0,K,A*3D
$GNRMC,122719.00,A,5159.367367,N,00422.977934,E,0.0,,191120,1.8,W,A,V*6B
$GNGGA,122719.00,5159.367367,N,00422.977934,E,1,12,0.4,-2.8,M,47.0,M,,*54
$GPGSV,3,1,10,02,37,247,34,04,08,077,38,05,42,298,33,06,18,198,23,1*6E
$GPGSV,3,2,10,07,67,119,35,09,45,078,45,13,11,255,40,16,13,032,36,1*6E
$GPGSV,3,3,10,29,07,314,43,30,52,178,41,1*67
$GLGSV,3,1,09,78,49,129,38,77,39,045,37,79,11,172,34,69,39,299,28,1*7F
$GLGSV,3,2,09,84,29,277,22,83,04,224,26,85,18,340,44,67,26,097,38,1*79
$GLGSV,3,3,09,68,73,043,27,1*49
$GAGSV,3,1,09,02,07,022,30,07,37,088,43,11,06,340,37,12,31,293,33,7*76
$GAGSV,3,2,09,19,37,274,22,27,29,130,41,30,33,067,43,33,26,234,39,7*71
$GAGSV,3,3,09,26,00,000,,7*4E
$GBGSV,4,1,13,33,24,113,41,32,42,292,35,30,13,281,40,29,09,331,49,1*79
$GBGSV,4,2,13,27,02,233,28,25,54,126,42,24,30,050,45,23,21,180,35,1*74
$GBGSV,4,3,13,10,24,075,37,07,19,049,40,05,11,119,35,09,00,000,,1*77
$GBGSV,4,4,13,14,00,000,,1*41
$GNGSA,A,3,02,04,05,06,07,09,13,16,29,30,,,0.8,0.4,0.6,1*3D
$GNGSA,A,3,67,68,69,77,78,84,85,,,,,,0.8,0.4,0.6,2*36
$GNGSA,A,3,02,07,11,12,19,27,30,33,,,,,0.8,0.4,0.6,3*31
$GNGSA,A,3,07,10,23,24,25,29,30,32,33,,,,0.8,0.4,0.6,4*31
$GNVTG,,T,,M,0.0,N,0.0,K,A*3D
$GNRMC,122720.00,A,5159.367366,N,00422.977932,E,0.0,,191120,1.8,W,A,V*66
$GNGGA,122720.00,5159.367366,N,00422.977932,E,1,12,0.4,-2.8,M,47.0,M,,*59
$GPGSV,3,1,10,02,37,247,34,04,08,077,37,05,42,298,34,06,18,198,23,1*66
$GPGSV,3,2,10,07,67,119,36,09,45,078,45,13,11,255,40,16,13,032,37,1*6C
$GPGSV,3,3,10,29,07,314,43,30,52,178,42,1*64
$GLGSV,3,1,09,78,49,129,38,77,39,045,37,79,11,172,32,69,39,299,28,1*79
$GLGSV,3,2,09,84,29,277,22,83,04,224,27,85,18,340,44,67,26,097,38,1*78
$GLGSV,3,3,09,68,73,043,27,1*49
$GAGSV,3,1,09,02,07,022,31,07,37,088,43,11,06,340,37,12,31,293,33,7*77
$GAGSV,3,2,09,19,37,274,22,27,29,130,41,30,33,067,43,33,26,234,39,7*71
$GAGSV,3,3,09,26,00,000,,7*4E
$GBGSV,4,1,13,33,24,113,41,32,42,292,35,30,13,281,40,29,09,331,49,1*79
$GBGSV,4,2,13,27,02,233,27,25,54,126,42,24,30,050,45,23,21,180,35,1*7B
$GBGSV,4,3,13,10,24,075,37,07,19,049,40,05,11,119,35,09,00,000,,1*77
$GBGSV,4,4,13,14,00,000,,1*41
$GNGSA,A,3,02,04,05,06,07,09,13,16,29,30,,,0.8,0.4,0.6,1*3D
$GNGSA,A,3,67,68,69,77,78,84,85,,,,,,0.8,0.4,0.6,2*36
$GNGSA,A,3,02,07,11,12,19,27,30,33,,,,,0.8,0.4,0.6,3*31
$GNGSA,A,3,07,10,23,24,25,29,30,32,33,,,,0.8,0.4,0.6,4*31
$GNVTG,,T,,M,0.0,N,0.0,K,A*3D
$GNRMC,122721.00,A,5159.367366,N,00422.977930,E,0.0,,191120,1.8,W,A,V*65
$GNGGA,122721.00,5159.367366,N,00422.977930,E,1,12,0.4,-2.8,M,47.0,M,,*5A
$GPGSV,3,1,10,02,37,247,34,04,08,077,37,05,42,298,33,06,18,198,19,1*68
$GPGSV,3,2,10,07,67,119,36,09,45,078,45,13,11,255,39,16,13,032,33,1*66
$GPGSV,3,3,10,29,07,314,43,30,52,178,42,1*64
$GLGSV,3,1,09,78,49,129,38,77,39,045,37,79,11,172,29,69,39,299,28,1*73
$GLGSV,3,2,09,84,29,277,23,83,04,224,26,85,18,340,43,67,26,097,38,1*7F
$GLGSV,3,3,09,68,73,043,28,1*46
$GAGSV,3,1,09,02,07,022,34,07,37,088,43,11,06,340,37,12,31,293,33,7*72
$GAGSV,3,2,09,19,37,274,22,27,29,130,41,30,33,067,43,33,26,234,39,7*71
$GAGSV,3,3,09,26,00,000,,7*4E
$GBGSV,4,1,13,33,24,113,41,32,42,292,35,30,13,281,40,29,09,331,49,1*79
$GBGSV,4,2,13,27,02,233,26,25,54,126,42,24,30,050,45,23,21,180,35,1*7A
$GBGSV,4,3,13,10,24,075,37,07,19,049,40,05,11,119,35,09,00,000,,1*77
$GBGSV,4,4,13,14,00,000,,1*41
$GNGSA,A,3,02,04,05,06,07,09,13,16,29,30,,,0.8,0.4,0.6,1*3D
$GNGSA,A,3,67,68,69,77,78,84,85,,,,,,0.8,0.4,0.6,2*36
$GNGSA,A,3,02,07,11,12,19,27,30,33,,,,,0.8,0.4,0.6,3*31
$GNGSA,A,3,07,10,23,24,25,29,30,32,33,,,,0.8,0.4,0.6,4*31
$GNVTG,,T,,M,0.0,N,0.0,K,A*3D
$GNRMC,122722.00,A,5159.367363,N,00422.977929,E,0.0,,191120,1.8,W,A,V*6B
$GNGGA,122722.00,5159.367363,N,00422.977929,E,1,12,0.4,-2.8,M,47.0,M,,*54
$GPGSV,3,1,10,02,37,247,35,04,08,077,37,05,42,298,32,07,67,119,37,1*64
$GPGSV,3,2,10,09,45,078,45,13,11,255,39,16,13,032,32,29,07,314,43,1*60
$GPGSV,3,3,10,30,52,178,43,06,18,198,,1*67
$GLGSV,3,1,09,78,49,129,39,77,39,045,37,79,11,172,30,69,39,299,27,1*75
$GLGSV,3,2,09,84,29,277,24,83,04,224,28,85,18,340,43,67,26,097,38,1*76
$GLGSV,3,3,09,68,73,043,29,1*47
$GAGSV,3,1,09,02,07,022,32,07,37,088,43,11,06,340,37,12,31,293,31,7*76
$GAGSV,3,2,09,19,37,274,19,27,29,130,41,30,33,067,43,33,26,234,40,7*77
$GAGSV,3,3,09,26,00,000,,7*4E
$GBGSV,4,1,13,33,24,113,42,32,42,292,34,30,13,281,40,29,09,331,49,1*7B
$GBGSV,4,2,13,27,02,233,28,25,54,126,43,24,30,050,45,23,21,180,37,1*77
$GBGSV,4,3,13,10,24,075,37,07,19,049,41,05,11,119,35,09,00,000,,1*76
$GBGSV,4,4,13,14,00,000,,1*41
$GNGSA,A,3,02,04,05,06,07,09,13,16,29,30,,,0.8,0.4,0.6,1*3D
$GNGSA,A,3,67,68,69,77,78,84,85,,,,,,0.8,0.4,0.6,2*36
$GNGSA,A,3,02,07,11,12,19,27,30,33,,,,,0.8,0.4,0.6,3*31
$GNGSA,A,3,07,10,23,24,25,29,30,32,33,,,,0.8,0.4,0.6,4*31
$GNVTG,,T,,M,0.0,N,0.0,K,A*3D
$GNRMC,122723.00,A,5159.367360,N,00422.977929,E,0.0,,191120,1.8,W,A,V*69
$GNGGA,122723.00,5159.367360,N,00422.977929,E,1,12,0.4,-2.8,M,47.0,M,,*56
$GPGSV,3,1,10,02,37,247,35,04,08,077,37,05,42,298,33,06,18,198,28,1*6B
$GPGSV,3,2,10,07,67,119,37,09,45,078,45,13,11,255,41,16,13,032,30,1*6B
